station_complex_id,station_complex_name,latitude,longitude,buffer_area_sqmi,pop_density_0p5mi,pop_rank,population_0p5mi,landuse_entropy_0p5mi,landuse_entropy_relative_0p5mi,landuse_simpson_0p5mi,landuse_k_categories_0p5mi,jobs_0p5mi,intersection_count_0p5mi,intersection_density_0p5mi,citibike_count_0p5mi,pct_hh_no_vehicle_0p5mi,median_hh_income_0p5mi,pct_workers_wfh_0p5mi,pct_car_truck_van_0p5mi,pct_transit_0p5mi,pct_taxicab_0p5mi,pct_bicycle_0p5mi,pct_walked_0p5mi,pct_other_means_0p5mi,pct_wfh_0p5mi,median_hh_income_0p5mi_approx,bus_routes_0p5mi,subway_lines_0p5mi,commuter_lines_0p5mi,dist_to_commuter_stop_ft,dist_to_commuter_stop_mi,transfer_subway_station_complexes_0p25mi,transfer_subway_station_complexes_0p10mi,dist_to_subway_station_complex_ft,dist_to_subway_station_complex_mi,subway_lines_serving_station,is_terminal_subway,has_university_0p25mi,has_university_0p5mi,has_hospital_0p25mi,has_hospital_0p5mi,has_stadium_0p1mi,cultural_count_0p25mi,cultural_count_0p5mi,has_cultural_0p25mi,cultural_count_0p25mi_capped10,has_cultural_0p5mi,cultural_count_0p5mi_capped10,adjacent_major_park_0p25mi,adjacent_major_park_0p5mi,od_jobs_exp_accessibility,log_od_jobs_exp_accessibility,destination_attractiveness_index,od_composite_exp_accessibility,log_od_composite_exp_accessibility
293,Van Cortlandt Park-242 St (1),40.889248,-73.898583,0.784137123,21362,411,16751,1.576416256,0.657416641,0.682475433,11,5950,371,473.1315344,9,34.69748033,75240.69993,8.004018594,31.06768668,46.46697476,1.402077171,0.452470331,8.521938679,0.453821658,8.004018594,73603,11,1,0,6419.320827,1.21578046,0,0,0.0,0.0,0,0,1,1,0,0,0,1,1,1,1,1,1,1,1,286709.30371364567,12.566227590233852,-3.7096087283316805,-19.845129359742835,4.354223034966691
294,238 St (1),40.884667,-73.90087,0.784137123,39234,322,30765,2.03586765,0.849022755,0.839954566,11,7932,445,567.5027838,18,30.75351287,67744.68848,7.269193866,25.80982593,51.88367678,1.374661128,0.399433648,6.980468864,1.241340237,7.269193866,67034,10,1,0,4683.159876,0.886962098,0,0,0.0,0.0,0,0,0,1,0,0,0,0,4,0,0,1,4,1,1,325071.2302469613,12.691802683532416,-2.228502877513759,-20.154803943125152,4.350235025115184
295,231 St (1),40.878856,-73.904834,0.784137123,55807,189,43760,2.04220241,0.851664555,0.841080178,11,7227,483,615.9636957,21,25.19786326,57556.26308,5.364990593,20.89376877,58.76908805,1.327900674,1.296016253,6.262351446,1.698429492,5.364990593,56674,11,1,1,2359.635421,0.446900648,0,0,0.0,0.0,0,0,0,0,0,0,0,1,3,1,1,1,3,0,0,380762.6481891268,12.849934115654372,-3.392291131185904,-15.584936230983324,4.407530407965841
296,Marble Hill-225 St (1),40.874561,-73.909831,0.784137123,49359,237,38704,2.241515982,0.934784771,0.87831444,11,7901,437,557.3004866,18,20.72429239,58538.87322,6.247171292,17.54074238,60.45416175,1.440453269,1.538086813,7.128068176,2.196470252,6.247171292,59890,12,1,1,318.0173062,0.06023055,0,0,0.0,0.0,0,0,0,0,1,1,0,1,6,1,1,1,6,0,1,425145.9565046681,12.960190168149406,-0.3801683894503911,-13.565271446726836,4.431842545755642
297,215 St (1),40.869444,-73.915279,0.784137123,37445,334,29362,2.047247853,0.853768668,0.832655118,11,5450,269,343.0522446,13,14.85305705,64709.13075,8.612342878,11.37642102,64.36091859,0.88969039,0.524486362,9.245967183,0.928685792,8.612342878,67005,8,2,1,2147.615832,0.406745423,0,0,0.0,0.0,0,0,0,0,0,1,0,8,15,1,8,1,10,0,1,485413.1263322213,13.092757674307332,0.08616917097701804,-8.411072014904729,4.491333923320812
298,207 St (1),40.864621,-73.918822,0.784137123,61989,137,48608,2.129959783,0.888262222,0.859116771,11,5928,404,515.2160105,18,12.570997,58736.173,8.199432495,8.866309781,64.82509476,1.006497212,0.200723601,11.6033321,1.287656524,8.199432495,59163,6,2,1,1798.606801,0.340645227,0,0,0.0,0.0,0,0,0,0,0,0,0,3,18,1,3,1,10,0,1,544431.1824021195,13.207498663372453,-1.4441792359453136,-2.5386392357437675,4.555063967350557
299,Dyckman St (1),40.860531,-73.925536,0.784137123,81310,55,63758,1.963544909,0.818861829,0.824003451,11,7086,401,511.390149,20,12.04372765,54367.96321,7.566359251,8.696062902,66.98761158,0.947776,0.198335481,11.31137378,0.879555788,7.566359251,54092,9,2,0,2818.739101,0.533852102,0,0,0.0,0.0,0,0,0,0,0,0,0,5,17,1,5,1,10,1,1,602331.2028871519,13.308564404126109,-0.8277094851587914,3.6873901332423564,4.618470034861106
300,191 St (1),40.855225,-73.929412,0.784137123,85922,45,67375,1.880147296,0.784082323,0.821490089,11,11343,406,517.7665848,19,10.50226452,60122.30724,8.237979625,7.308409685,69.31087324,0.58903197,0.435155617,10.36163152,0.550327346,8.237979625,59469,11,2,0,2742.079283,0.519333198,0,0,0.0,0.0,0,0,0,1,0,0,0,6,25,1,6,1,10,1,1,682117.0178620834,13.43295796857334,1.5974877792611617,8.547227254392034,4.665311920856451
301,181 St (1),40.849505,-73.933596,0.784137123,99526,19,78042,1.910275953,0.796646949,0.825184927,11,11230,798,1017.679149,18,13.06967698,60599.02217,7.187786101,8.904702318,67.80253465,0.419051894,0.54492438,9.924243048,1.012496169,7.187786101,67889,12,2,0,4244.984897,0.803974412,0,0,0.0,0.0,0,0,1,1,0,0,0,16,39,1,10,1,10,1,1,787211.3781076986,13.576253348818735,2.2299753979638366,16.48345022790015,4.737381332905052
605,"168 St-Washington Hts (1,A,C)",40.8406375,-73.939847,0.784137123,80830,57,63382,1.696153105,0.736629934,0.754011412,10,24457,472,601.935537,17,12.15688126,46982.55575,6.078537836,8.148960073,65.70887621,0.446274202,0.688475553,14.44562616,0.420972308,6.078537836,53861,8,3,0,2883.36319,0.546091513,0,0,0.0,0.0,0,0,0,0,1,1,0,6,18,1,6,1,10,1,1,970839.667144438,13.785917642299644,1.9024993822181429,30.798168356348686,4.85553697345018
303,157 St (1),40.834041,-73.94489,0.784137123,80026,61,62751,1.817454055,0.757937211,0.804285246,11,7309,498,635.093003,22,8.761427047,51621.17363,8.473278883,6.248841624,70.03595436,0.483104513,1.611181991,10.29765647,0.183561731,8.473278883,52986,9,5,0,3766.668425,0.713384171,0,0,0.0,0.0,0,0,1,1,0,0,0,14,31,1,10,1,10,1,1,1168314.6594768276,13.97107366225902,1.8125954619409448,42.94771227338051,4.945913223075778
304,145 St (1),40.826551,-73.95036,0.784137123,72591,84,56921,1.959170676,0.817037632,0.838628532,11,6490,364,464.2045243,21,7.152971953,62488.10764,11.34194027,5.138232379,73.10310066,0.637249784,1.645386777,5.441503232,0.547101128,11.34194027,61614,8,5,0,5680.763884,1.075902251,0,0,0.0,0.0,0,0,0,0,0,0,0,5,33,1,5,1,10,0,0,1430820.261986281,14.17375914646506,-0.627060965664182,60.06869058135307,5.060822380365759
305,137 St-City College (1),40.822008,-73.953676,0.784137123,64688,122,50724,2.011932214,0.839040902,0.830028066,11,9113,412,525.4183077,20,6.935388644,58391.75754,10.5301843,4.999829918,73.43271675,0.860548688,0.922012696,6.629999171,0.577878033,10.5301843,57003,10,4,0,6688.813485,1.266820736,0,0,0.0,0.0,0,0,1,1,0,0,0,5,28,1,5,1,10,0,0,1625658.5564816203,14.301424172310366,1.0474339610355687,69.35366257492723,5.118024596182364
306,125 St (1),40.815581,-73.958372,0.784137123,58403,161,45796,1.997356139,0.832962207,0.838139683,11,15308,485,618.51427,18,6.925774223,56324.23022,13.77570097,6.113909464,59.06854923,0.578713691,2.152631207,16.72920534,0.769425341,13.77570097,65315,9,5,0,6537.603308,1.238182445,0,0,0.0,0.0,0,0,0,1,0,0,0,14,40,1,10,1,10,1,1,1957988.604027076,14.487428792572837,0.9957304345237714,86.54948359229908,5.216027346312224
307,116 St-Columbia University (1),40.807722,-73.96411,0.784137123,61471,139,48202,1.785818746,0.744744262,0.805078027,11,45721,430,548.3734765,12,7.10778539,82134.19483,15.11256513,5.912479141,48.99854748,1.755722571,2.471491246,24.05316609,0.500722086,15.11256513,99131,8,1,0,6973.061759,1.320655636,0,0,0.0,0.0,0,0,1,1,0,0,0,18,48,1,10,1,10,1,1,2450169.9584496245,14.711668359045502,0.5249052519783703,110.17236704612884,5.336690823954528
308,Cathedral Pkwy (110 St) (1),40.803967,-73.966847,0.784137123,68806,96,53953,1.819313776,0.790117934,0.812882225,10,42204,431,549.6487637,12,6.019972734,89994.67415,15.44557314,4.492279204,56.02143325,1.460683355,2.187819317,18.32147973,0.543038475,15.44557314,106301,8,1,0,7680.325797,1.454607158,0,0,0.0,0.0,0,0,1,1,0,0,0,18,52,1,10,1,10,1,1,2743377.877038926,14.824700885441114,0.7935740713558206,121.93121379974465,5.391728891378128
309,103 St (1),40.799446,-73.968379,0.784137123,91536,31,71777,1.778581228,0.772428013,0.790042712,10,18054,493,628.7165673,15,6.438282,110854.225,16.27836316,4.581517692,61.31193308,1.772255482,1.920006801,11.64851476,0.630644723,16.27836316,112373,11,6,0,8355.695238,1.582518038,0,0,0.0,0.0,0,0,0,1,0,0,0,35,53,1,10,1,10,1,1,3144910.274721659,14.96129623618348,2.7509709771295956,135.5380148767572,5.451851398872221
310,"96 St (1,2,3)",40.793919,-73.972323,0.784137123,101244,13,79389,1.682327114,0.730625382,0.744170712,10,19241,493,628.7165673,15,6.200248344,131594.9562,17.80600801,4.417453656,62.70006188,2.1185315,2.037219167,6.864459244,2.185222218,17.80600801,121650,8,6,0,10056.0562,1.904556099,0,0,0.0,0.0,0,0,0,0,0,0,0,27,62,1,10,1,10,1,1,3705646.726290133,15.125368626341848,0.9119658788068972,158.39765721195164,5.545369362019283
311,86 St (1),40.788644,-73.976218,0.784137123,95403,26,74809,1.759991371,0.76435454,0.806226012,10,24326,439,559.8510609,18,6.575009009,142224.7986,17.60753385,4.960548845,59.83580345,3.005751359,2.302324007,8.350849493,2.117688171,17.60753385,131776,10,6,0,11896.91248,2.253203121,0,0,0.0,0.0,0,0,0,1,0,0,0,27,59,1,10,1,10,1,1,4340579.205459782,15.283518585035116,2.9104645907113023,179.8424514328669,5.625799058446068
312,79 St (1),40.783934,-73.979917,0.784137123,88467,41,69370,1.850500444,0.771718626,0.824900235,11,30331,363,462.9292371,17,6.894779926,145270.5078,18.2335576,5.424295277,57.37893554,3.285995028,2.734475686,10.75695715,0.551873196,18.2335576,144294,10,6,0,10555.20583,1.999092013,0,0,0.0,0.0,0,0,0,1,0,0,0,18,63,1,10,1,10,1,1,4993494.178868994,15.423646659183534,2.684383255563402,202.94684748720897,5.705774908042778
313,"72 St (1,2,3)",40.778453,-73.98197,0.784137123,94054,29,73751,1.923526123,0.802172699,0.833073426,11,43095,428,545.8229022,17,7.962231191,140606.2381,15.33558918,5.906333838,54.04303459,3.600266269,4.074937454,13.9356844,0.707991474,15.33558918,147763,11,6,0,8675.46291,1.643080097,0,0,0.0,0.0,0,0,0,1,0,1,0,24,71,1,10,1,10,1,1,5859059.044922391,15.58349974679706,5.540945471127653,230.3501456625669,5.793018559760987
314,66 St-Lincoln Center (1),40.77344,-73.982209,0.784137123,89926,36,70514,1.686627595,0.767617299,0.750964659,9,60806,430,548.3734765,19,7.615119815,128570.4028,13.2061578,5.592135727,49.17719552,4.342239102,3.815390753,20.47582159,1.012468681,13.2061578,143907,12,7,0,6917.111609,1.310059017,0,0,0.0,0.0,0,0,1,1,1,1,0,30,78,1,10,1,10,1,1,6772238.90865932,15.728342448166918,5.833727798735358,260.7910639139228,5.881768374689731
614,"59 St-Columbus Circle (1,A,C,B,D)",40.7682715,-73.9818325,0.784137123,65768,114,51571,1.594097534,0.664790307,0.760573116,11,152934,362,461.65395,22,5.803384406,120435.4074,12.80851289,4.530452489,42.98818694,4.565152389,2.070172246,30.54232719,1.212760246,12.80851289,134982,33,13,0,5092.503763,0.964489349,0,0,0.0,0.0,0,0,1,1,0,1,0,29,78,1,10,1,10,1,1,7760279.926220833,15.864529093336712,8.474920332347729,292.1783875146758,5.96571040268057
316,50 St (1),40.761728,-73.983849,0.784137123,54132,199,42447,1.464688058,0.610822364,0.687305858,11,382043,181,230.826975,36,3.919123575,110584.4623,13.00637126,3.188405432,39.7296519,3.250882934,2.5481163,35.8265273,1.719326733,13.00637126,111495,64,18,0,3336.225483,0.631860887,0,0,0.0,0.0,0,0,1,1,0,0,0,31,140,1,10,1,10,0,1,8821584.23892987,15.992712144138032,11.105610817469294,328.4094745052412,6.05458241795502
611,"Times Sq-42 St/Port Authority Bus Terminal (1,2,3,7,A,C,E,N,Q,R,W,S)",40.755746,-73.9875808,0.784137123,36152,342,28348,1.299708494,0.542020542,0.575226269,11,529365,259,330.2993731,35,3.932082618,116212.6209,11.97653522,2.339428426,43.96989824,1.638718721,2.57670654,34.10367875,1.80237991,11.97653522,108561,66,18,11,2509.451406,0.475274887,0,0,0.0,0.0,0,0,1,1,0,0,0,58,202,1,10,1,10,0,0,9181264.819665883,16.03267564194337,16.44983889190585,341.4774810485874,6.084793127207216
318,"34 St-Penn Station (1,2,3)",40.750373,-73.991057,0.784137123,41562,302,32590,1.61021559,0.671512058,0.715389709,11,449122,237,302.2430557,36,4.317935755,119790.3189,12.09167844,3.217911284,44.70000451,1.831210659,3.128233918,33.17459909,0.756337627,12.09167844,123643,67,18,11,704.566067,0.133440543,0,0,0.0,0.0,0,0,1,1,0,0,0,68,190,1,10,1,10,0,0,9347449.401046522,16.05061417969967,15.903176830991631,350.14160601095466,6.104331260552801
319,28 St (1),40.747215,-73.993365,0.784137123,58991,157,46257,1.672080112,0.697311568,0.741144882,11,360065,229,292.0407584,32,4.728939834,115730.4967,12.49707925,3.445713844,48.89041453,1.431204891,3.153377392,28.90945966,0.389524441,12.49707925,132350,58,15,11,1230.550779,0.23305886,0,0,0.0,0.0,0,0,1,1,0,0,0,44,182,1,10,1,10,0,0,9269014.297051828,16.042187707202043,14.456529444386126,349.8977611200463,6.103786564093305
320,23 St (1),40.744081,-73.995657,0.784137123,75475,78,59183,1.759693679,0.733849263,0.793009151,11,244801,225,286.9396098,31,4.879201267,122245.2578,12.4701976,4.056226084,51.61852193,2.225842568,2.932952314,25.35809326,0.493370216,12.4701976,133543,44,14,11,2439.4517,0.462017367,0,0,0.0,0.0,0,0,1,1,0,0,0,49,136,1,10,1,10,0,0,9099095.375751778,16.023685667188634,12.785606233969359,345.43326948656784,6.093761056217451
321,18 St (1),40.74104,-73.997871,0.784137123,80457,60,63089,1.841462063,0.767949328,0.824552465,11,174652,245,312.4453529,38,5.478202611,132473.7605,12.21152928,4.578280197,52.62660477,2.514461066,2.771023024,23.57595479,0.774947111,12.21152928,144710,26,14,0,3676.014879,0.696214939,0,0,0.0,0.0,0,0,1,1,0,1,0,26,132,1,10,1,10,0,0,8804800.88864056,15.990807799788854,9.056255068954412,339.0177562290275,6.079176008323732
601,"14 St/6 Av (1,2,3,L,F,M)",40.73779633,-73.997732,0.784137123,81302,56,63752,1.830199727,0.763252569,0.819183424,11,164510,279,355.8051162,37,5.759397152,143376.8717,12.41558777,4.726073324,52.2550248,3.045727907,2.655457706,22.8134768,0.954016156,12.41558777,150892,23,20,0,4800.209898,0.909130663,0,0,0.0,0.0,0,0,1,1,1,1,0,29,118,1,10,1,10,0,0,8612529.547430918,15.968728741169276,10.05829971873736,332.5903677275297,6.064347483420116
323,Christopher St-Stonewall (1),40.733422,-74.002906,0.784137123,75667,76,59333,1.963672768,0.81891515,0.838370433,11,85862,406,517.7665848,36,6.419605182,136055.3613,14.75152751,5.286659634,48.98904061,4.148103972,3.684961648,20.82242193,0.933710048,14.75152751,140676,23,12,0,6766.737736,1.281579117,0,0,0.0,0.0,0,0,0,1,0,1,0,21,93,1,10,1,10,0,0,8018974.5691122245,15.897321237159288,7.302170192169177,311.83819364088407,6.014911682056738
324,Houston St (1),40.728251,-74.005367,0.784137123,49254,242,38622,1.939390149,0.808788512,0.823123708,11,100961,466,594.2838141,32,6.074559316,145327.1332,16.0001298,5.153586485,44.44562478,4.975435538,4.84992702,22.36745694,0.910673342,16.0001298,134770,17,14,0,8768.849949,1.660767036,0,0,0.0,0.0,0,0,0,1,0,0,0,26,83,1,10,1,10,0,0,7594156.720532827,15.842889788656555,3.958774962798537,297.94097581943663,5.980384525280733
325,Canal St (1),40.722854,-74.006277,0.784137123,38561,326,30237,1.772037262,0.738996937,0.775430674,11,125403,432,550.9240508,30,5.465379568,164823.344,19.63547329,4.664363854,44.1367317,5.79656602,2.763894122,20.45177615,1.750179152,19.63547329,136378,19,14,0,10699.29014,2.026380708,0,0,0.0,0.0,0,0,1,1,0,0,0,32,103,1,10,1,10,0,0,7317068.513438189,15.805720466085928,3.9032722192354177,285.7816923906505,5.949165344301857
326,Franklin St (1),40.719318,-74.006886,0.784137123,45553,274,35720,1.663964072,0.693926916,0.757242233,11,153647,468,596.8343884,34,5.39035082,188699.7097,17.19719453,4.209860349,44.60108889,5.655838943,2.075848814,23.32431158,1.755366419,17.19719453,144776,26,16,0,11974.3805,2.267875096,0,0,0.0,0.0,0,0,1,1,0,0,0,41,120,1,10,1,10,0,0,7123374.429108576,15.778892248171093,5.384466862917918,276.20959312595,5.923884261877035
327,"Chambers St (1,2,3)",40.715478,-74.009266,0.784137123,50140,222,39317,1.548378651,0.645724052,0.713894601,11,197407,655,835.3130863,34,5.390863193,199359.1426,15.02096621,4.527961743,45.28112067,5.245818756,1.529802278,25.72738889,1.804040005,15.02096621,166353,30,15,0,13509.99477,2.55871113,0,0,0.0,0.0,0,0,1,1,0,1,0,26,109,1,10,1,10,0,0,6807015.75300815,15.733464513571198,8.512511798223782,260.72663880160593,5.8815886223021945
328,WTC Cortlandt (1),40.711835,-74.012188,0.784137123,62768,133,49219,1.459125418,0.633690117,0.68629119,10,229959,727,927.1337614,31,4.28928169,196950.5818,11.04493485,3.653687819,51.21465878,3.626366713,0.966213638,27.58798579,1.144282545,11.04493485,183122,33,15,0,14435.40367,2.733977968,0,0,0.0,0.0,0,0,1,1,0,1,0,24,109,1,10,1,10,0,0,6422961.748055107,15.675390056449658,9.580194647057786,243.67111974165402,5.832828065659547
329,Rector St (1),40.707513,-74.013783,0.784137123,49490,234,38807,1.512141941,0.656714901,0.690830334,10,248730,769,980.6958219,31,3.579683394,189201.4728,11.59082525,3.073191995,52.04744114,2.241389302,0.564012251,28.8424191,0.989996986,11.59082525,186954,41,13,0,13697.42047,2.594208422,0,0,0.0,0.0,0,0,1,1,0,1,0,41,113,1,10,1,10,0,0,5994741.719940184,15.60639342974973,9.335737684352145,224.77849820758354,5.775885985840671
635,"Whitehall St-South Ferry (1,R,W)",40.7025775,-74.013329,0.784137123,28063,391,22005,1.660677518,0.75580691,0.752344198,9,159215,704,897.8021569,21,3.074490162,193179.996,12.67173879,2.669589041,53.34647467,1.92254381,0.292028846,27.77670565,0.876399448,12.67173879,194317,39,10,0,12525.11757,2.372181358,0,0,0.0,0.0,0,0,1,1,0,0,0,37,81,1,10,1,10,0,0,5491889.292002837,15.518783069705954,4.312642963490568,203.51599435308435,5.707666497883478
416,Wakefield-241 St (2),40.903125,-73.85062,0.784137123,21631,410,16962,1.705850204,0.71139479,0.729384402,11,3418,239,304.79363,0,42.3546979,69231.05336,3.38638821,36.97593169,50.24176335,0.469882968,0.0,3.084681907,0.462585659,3.38638821,73021,3,2,1,1733.602126,0.328333736,0,0,0.0,0.0,0,0,0,0,0,0,0,0,0,0,0,0,0,0,1,133448.8134058233,11.80148075659882,-5.963242703709375,-28.768188267844046,4.2324136250242175
417,"Nereid Av (2,5)",40.898379,-73.854376,0.784137123,31371,378,24599,1.809267699,0.754523235,0.738650004,11,3423,325,414.4683253,0,44.29904384,62462.82931,3.189332435,37.25966586,47.73282111,0.459649895,0.000418153,4.112409562,0.204838242,3.189332435,71385,4,2,1,2604.483035,0.493273302,0,0,0.0,0.0,0,0,0,0,0,0,0,0,1,0,0,1,1,0,1,159259.26539299657,11.978295032223437,-5.22938333468517,-33.26331989781001,4.16492974190597
418,"233 St (2,5)",40.893193,-73.857473,0.784137123,40165,316,31495,1.962247908,0.818320938,0.818767939,11,6123,295,376.2097106,0,41.80652766,50908.72546,3.021180592,34.67108886,48.21907273,0.945401991,0.602195958,5.017124088,0.167877225,3.021180592,56302,5,2,1,1699.551576,0.321884768,0,0,0.0,0.0,0,0,0,0,1,1,0,0,1,0,0,1,1,1,1,186314.91081077847,12.135198957187596,-2.3444827972552327,-38.95187234535903,4.072433015528724
419,"225 St (2,5)",40.888022,-73.860341,0.784137123,43903,284,34426,1.782420997,0.774095603,0.779415719,10,5543,227,289.4901841,0,38.71355267,47209.71624,2.528870331,30.25681128,52.66297261,0.850809844,0.5584556,4.595476879,0.0,2.528870331,49259,4,2,0,2767.054235,0.524063302,0,0,0.0,0.0,0,0,0,0,0,1,0,0,1,0,0,1,1,1,1,218691.04777051334,12.295419844643519,-2.66366506051659,-41.24595354433918,4.032567112017034
420,"219 St (2,5)",40.883895,-73.862633,0.784137123,43617,285,34202,1.725185729,0.71945833,0.757801896,11,2274,214,272.9114511,0,35.93365381,44980.79645,3.399250871,28.81873541,55.67830181,0.876613847,0.457522691,3.489755028,0.162759509,3.399250871,46056,7,2,0,3033.293093,0.574487328,0,0,0.0,0.0,0,0,0,0,0,0,0,1,2,1,1,1,2,1,1,249096.7948960582,12.4256008489271,-4.670581892681457,-40.92631329915055,4.038217941087545
421,"Gun Hill Rd (2,5)",40.87785,-73.866256,0.784137123,42584,294,33392,1.884976077,0.818634709,0.802137877,10,3410,420,535.620605,2,31.55677189,42867.06241,4.266613456,26.32022991,57.09424961,1.128897842,0.385620388,4.704854285,0.862992524,4.266613456,44835,8,2,1,1355.162717,0.256659606,0,0,0.0,0.0,0,0,0,0,0,0,0,1,2,1,1,1,2,1,1,292590.5223889599,12.586532793768246,-4.232935653641178,-42.15951199296077,4.01623826072737
422,"Burke Av (2,5)",40.871356,-73.867164,0.784137123,44740,278,35082,1.972000692,0.822388164,0.83052981,11,4419,539,687.3797764,1,31.47783333,47756.39954,3.376085335,28.0977235,58.05092153,1.210696331,0.588337456,4.479538275,0.816587736,3.376085335,51297,10,2,0,2840.699387,0.538011248,0,0,0.0,0.0,0,0,0,0,0,0,0,0,1,0,0,1,1,1,1,328801.72319236473,12.703213224345086,-4.661100638213738,-43.0710341640253,3.999675654291281
423,"Allerton Av (2,5)",40.865462,-73.867352,0.784137123,49171,243,38557,1.627446841,0.678698048,0.700389115,11,5615,438,558.5757737,0,28.86130613,45930.89349,2.815085136,24.70129607,59.20166772,0.845612618,0.53659167,7.249745559,0.48999117,2.815085136,48064,6,2,0,4376.389858,0.828861715,0,0,0.0,0.0,0,0,0,0,0,0,0,1,2,1,1,1,2,1,1,357531.54427648976,12.786981669914184,-4.471470472703753,-44.385498638784505,3.9752978488538893
424,"Pelham Pkwy (2,5)",40.857192,-73.867615,0.784137123,45316,276,35534,1.552487721,0.67423685,0.684222001,10,6540,503,641.4694388,0,25.746166,48890.29355,4.289478066,22.12517111,62.4106935,0.486936567,0.789155826,6.091322244,0.186247792,4.289478066,50014,6,2,0,5477.655661,1.037434784,0,0,0.0,0.0,0,0,0,0,0,0,0,2,6,1,2,1,6,1,1,398617.02854096645,12.895758915394214,-3.578089149393148,-46.40333675717502,3.9366793565978275
425,"Bronx Park East (2,5)",40.848828,-73.868457,0.784137123,32130,370,25194,1.908385811,0.795858698,0.810432883,11,4480,315,401.7154537,0,30.3015812,52233.15919,5.590602177,26.1706296,55.47049244,1.428107215,1.028379644,5.497202077,0.600695072,5.590602177,55623,5,2,0,7625.062089,1.444140547,0,0,0.0,0.0,0,0,0,0,0,0,0,2,3,1,2,1,3,1,1,447239.3336143424,13.010851388201331,-4.999131072284984,-45.12555556896031,3.961306815812291
426,"E 180 St (2,5)",40.841894,-73.873488,0.784137123,36378,340,28525,2.129864101,0.888222319,0.855721318,11,2766,578,737.1159754,5,28.41452456,33641.80094,4.855572118,23.55950342,58.24730786,1.531084027,0.757555314,5.658042156,0.309122842,4.855572118,41040,10,2,0,7475.072374,1.415733404,0,0,0.0,0.0,0,0,0,0,0,0,0,1,3,1,1,1,3,1,1,521986.69420816016,13.165399292273028,-4.504506642091997,-42.438426328950236,4.011199375769792
427,"West Farms Sq-E Tremont Av (2,5)",40.840295,-73.880049,0.784137123,44311,281,34746,1.995208127,0.832066417,0.819910097,11,3740,693,883.7739982,13,22.71914087,24162.25468,4.62496209,19.77039815,63.42828305,1.393381297,0.526375099,6.570683366,0.533764213,4.62496209,30257,9,2,0,5968.911224,1.130475611,0,0,0.0,0.0,0,0,0,0,0,0,0,0,1,0,0,1,1,1,1,582448.0090044388,13.274996922400497,-4.753172834607921,-37.16265190176635,4.102458661885871
428,"174 St (2,5)",40.837288,-73.887734,0.784137123,40325,314,31620,1.859549481,0.775492367,0.762281925,11,5774,493,628.7165673,18,24.25179738,28841.02326,5.260426813,18.95684486,62.25313644,0.800151101,0.014017865,6.486331621,0.934138788,5.260426813,29803,6,2,0,4898.715544,0.927787035,0,0,0.0,0.0,0,0,0,0,0,0,0,0,0,0,0,0,0,1,1,670631.7257951612,13.415976912591756,-5.360376624087327,-28.25371499789618,4.239854639258018
429,"Freeman St (2,5)",40.829993,-73.891865,0.784137123,53200,205,41716,1.999037251,0.833663285,0.824755921,11,6261,459,585.356804,21,24.89832685,32929.60151,5.597332474,19.49892674,61.44030278,0.763018583,0.414796337,6.38311277,0.503110198,5.597332474,35194,9,3,0,6647.796905,1.259052444,0,0,0.0,0.0,0,0,0,0,0,0,0,0,1,0,0,1,1,0,1,786233.6043138888,13.575010505646269,-4.144245025988459,-22.17127851455586,4.32387036859571
430,"Simpson St (2,5)",40.824073,-73.893064,0.784137123,56197,180,44066,2.173529145,0.906432057,0.867961981,11,11101,720,918.2067514,21,22.7950316,31612.69413,3.955734292,18.14141882,61.59919604,1.059469437,0.723145898,9.305609391,0.561813333,3.955734292,33731,9,4,0,6165.715454,1.167749139,0,0,0.0,0.0,0,0,0,0,0,0,0,1,5,1,1,1,5,0,0,866425.4044539332,13.672132450259395,-2.712178481281403,-18.087615787494858,4.376560002399579
431,"Intervale Av (2,5)",40.822181,-73.896736,0.784137123,63676,128,49931,2.02871156,0.846038433,0.848299417,11,11757,648,826.3860762,21,21.52719958,33241.6431,3.76297797,17.74948191,60.38945628,1.040286061,1.041756865,11.66753109,0.570792154,3.76297797,34672,10,4,0,5282.337941,1.000442792,0,0,0.0,0.0,0,0,0,0,0,0,0,2,9,1,2,1,9,0,0,938279.334968389,13.751804047909085,-1.2824265674800261,-12.969329629712448,4.4389048210432795
432,"Prospect Av (2,5)",40.819585,-73.90177,0.784137123,70680,87,55423,1.961356802,0.817949318,0.829900233,11,8023,610,777.9251644,20,21.44966995,33922.6088,4.586181754,16.91768162,59.89362562,0.961046875,0.97565124,11.28762222,0.84620234,4.586181754,35301,9,3,0,4352.389941,0.824316277,0,0,0.0,0.0,0,0,0,0,0,0,0,4,9,1,4,1,9,0,0,1050414.0736610391,13.864695952268594,-1.3092866564360999,-3.391914973077631,4.546052289827535
433,"Jackson Av (2,5)",40.81649,-73.907807,0.784137123,63903,126,50109,2.152677627,0.897736299,0.869896178,11,10027,465,593.0085269,20,21.81344831,34769.26137,5.283200246,16.89230145,59.94713587,0.775165023,0.839680658,10.51251664,0.828853261,5.283200246,35893,9,3,0,3953.661967,0.748799615,0,0,0.0,0.0,0,0,0,1,0,0,0,3,12,1,3,1,10,0,0,1197371.3929962039,13.99564004141689,0.7448239677941735,7.039960922419309,4.651017350593596
434,"3 Av-149 St (2,5)",40.816109,-73.917757,0.784137123,59157,156,46387,2.062324309,0.860056039,0.849885096,11,22674,539,687.3797764,24,16.39361261,21227.09792,4.879527211,12.21630133,64.87210533,0.754454478,0.861530896,11.10029497,1.138474506,4.879527211,26385,10,2,0,3585.398679,0.67905278,0,0,0.0,0.0,0,0,0,0,0,0,0,4,9,1,4,1,9,0,0,1367980.3931880973,14.128846775601442,-1.78125192103099,27.828016733119213,4.832142359774197
603,"149 St-Grand Concourse (2,4,5)",40.8183925,-73.9270345,0.784137123,38352,329,30073,2.187884226,0.912418591,0.871337122,11,22257,779,993.4486935,16,15.55900764,28163.4994,4.220555477,11.66156287,66.08582204,0.685693943,0.887705085,12.15050606,0.349862096,4.220555477,35081,12,3,1,2638.662935,0.499746768,0,0,0.0,0.0,0,0,1,1,0,0,0,7,12,1,7,1,10,0,0,1462497.6098017683,14.195656907524803,0.4116052988797859,41.578760116810756,4.9361289549834995
438,"135 St (2,3)",40.814229,-73.94077,0.784137123,79883,62,62639,1.938046008,0.808227961,0.825923883,11,15452,732,933.5101972,23,11.03530864,54951.55819,10.02588052,9.076193538,66.97831634,0.591434182,1.718327292,8.831605028,0.67498459,10.02588052,58585,8,5,0,3335.573636,0.631737431,0,0,0.0,0.0,0,0,0,0,1,1,0,16,42,1,10,1,10,0,0,1830962.7960024723,14.420353050660767,2.193628250147569,72.7982817032609,5.138440591110462
439,"125 St (2,3)",40.807754,-73.945495,0.784137123,76646,74,60101,1.996111216,0.832443034,0.841639635,11,21819,444,566.2274967,20,9.621731643,63256.50407,10.72765056,8.002989592,67.63208394,1.01913111,1.124976772,9.083536468,0.713262189,10.72765056,67538,18,10,1,1995.407496,0.377918086,0,0,0.0,0.0,0,0,1,1,0,1,0,25,62,1,10,1,10,0,0,2215396.2247237638,14.610942279344028,6.314546644465293,91.95260195203105,5.244938110396785
440,"116 St (2,3)",40.802098,-73.949625,0.784137123,84574,49,66318,1.794133476,0.779182268,0.795956286,10,15512,552,703.9585094,18,8.463835552,66228.46494,9.233571637,7.101157046,70.36938655,1.166991313,0.995472424,8.74669402,0.971593379,9.233571637,65075,16,8,0,3107.04521,0.588455532,0,0,0.0,0.0,0,0,0,1,0,1,0,18,40,1,10,1,10,0,1,2636707.258109782,14.785041825202812,5.618121959811592,113.40489393606966,5.3521252652298275
441,"110 St-Malcolm X Plaza (2,3)",40.799075,-73.951822,0.784137123,79166,65,62077,1.467345043,0.637259855,0.692708108,10,12478,578,737.1159754,18,7.988535184,59135.63068,10.29664827,6.85393413,69.32624868,1.278710283,0.94510666,8.902993105,1.21703594,10.29664827,60875,11,8,0,4149.747826,0.785937088,0,0,0.0,0.0,0,0,0,1,0,0,0,7,34,1,7,1,10,1,1,2892295.267773115,14.877561300918725,2.602234629695543,127.21853306869016,5.415522508419294
624,"Chambers St/WTC/Park Place/Cortlandt St (2,3,A,C,E,R,W)",40.712603,-74.0095515,0.784137123,67136,105,52644,1.533412886,0.639482843,0.709269237,11,244926,755,962.8418018,35,4.298460755,193207.1256,10.8990646,3.575121024,51.11062473,3.739038513,1.133802146,27.56152035,1.160648369,10.8990646,173878,36,15,0,14140.17898,2.678064202,0,0,0.0,0.0,0,0,1,1,0,1,0,32,121,1,10,1,10,0,0,6622496.918083049,15.705983185758067,10.119989259764104,252.10656370845442,5.857241607138313
628,"Fulton St (2,3,4,5,A,C,J,Z)",40.71008875,-74.00783825,0.784137123,64013,125,50195,1.512338524,0.630694151,0.69341527,11,281083,930,1186.017054,38,3.968365186,181986.466,10.93474472,3.165795747,52.05781543,2.086707834,0.894670778,29.0520766,0.967887455,10.93474472,165460,41,15,0,13142.49331,2.489108581,0,0,0.0,0.0,0,0,1,1,1,1,0,41,138,1,10,1,10,0,0,6469213.021413637,15.682565178636164,10.70363901923531,245.16606992835042,5.837198376549368
333,"Wall St (2,3)",40.706821,-74.0091,0.784137123,52185,213,40920,1.638297754,0.68322323,0.727231146,11,249072,1027,1309.719908,34,3.713017493,181972.2214,11.56914163,2.951468199,52.57128352,1.82899603,0.538342463,28.67732019,1.009311928,11.56914163,173458,41,13,0,12551.0283,2.377088693,0,0,0.0,0.0,0,0,1,1,0,1,0,65,128,1,10,1,10,0,0,6149631.524825514,15.631902885936583,9.451539001893758,230.36509697592436,5.793064141768843
334,"Clark St (2,3)",40.697466,-73.993086,0.784137123,40013,317,31376,2.029496202,0.846365654,0.83657491,11,101951,902,1150.309014,27,5.081531691,154730.7501,16.23259087,4.049261117,61.86729865,1.395951866,1.881753539,12.63798629,0.884617684,16.23259087,146966,15,11,0,6989.957747,1.323855634,0,0,0.0,0.0,0,0,0,1,0,0,0,15,43,1,10,1,10,0,0,5096350.664818078,15.44403548186302,2.8128946213493817,184.13274455112517,5.641141611183935
620,"Borough Hall/Court St (2,3,4,5,R)",40.693241,-73.990642,0.784137123,57365,165,44982,2.034762207,0.848561749,0.859210529,11,119577,663,845.5153835,29,4.473249717,139351.1251,14.02808925,3.849606283,64.60790383,1.20818394,2.756715214,12.02719719,0.883808181,14.02808925,142266,15,15,0,5439.293855,1.030169291,0,0,0.0,0.0,0,0,1,1,0,1,0,17,43,1,10,1,10,0,0,4644600.916997982,15.351216225157712,6.992636726744004,161.8224136598125,5.558656088885096
336,"Hoyt St (2,3)",40.690545,-73.985065,0.784137123,56519,175,44319,2.023403793,0.843824923,0.849098037,11,133428,582,742.217124,29,5.593424155,132648.0659,11.50173847,5.186086907,67.25622295,1.290600629,2.800579798,10.69014097,0.85205424,11.50173847,128268,15,15,0,3632.769373,0.688024502,0,0,0.0,0.0,0,0,1,1,0,1,0,16,46,1,10,1,10,0,0,4304953.368565671,15.275277096151479,7.1022613864799755,147.3557054600335,5.501287531964205
337,"Nevins St (2,3,4,5)",40.688246,-73.980492,0.784137123,55511,194,43528,1.986217467,0.82831702,0.839465016,11,103757,436,556.0251994,28,6.862272011,120407.7046,12.12362791,5.953489151,67.0443641,0.933633097,2.573574636,9.613727554,0.82154955,12.12362791,117065,15,15,8,2158.181866,0.408746566,0,0,0.0,0.0,0,0,1,1,1,1,0,12,73,1,10,1,10,0,0,3994201.532800897,15.200354500936347,9.963275446142337,128.7692573161425,5.422394930956586
617,"Atlantic Av-Barclays Ctr (2,3,4,5,B,D,N,Q,R)",40.68416167,-73.97778867,0.784137123,51780,216,40603,2.106024532,0.878280447,0.861516921,11,33415,341,434.8729197,27,8.149061698,125580.0824,14.04612231,6.924121467,65.05382621,0.608854853,2.333909783,8.935049351,0.803051762,14.04612231,125326,11,13,8,622.4130696,0.117881263,0,0,0.0,0.0,0,0,0,1,0,1,0,45,68,1,10,1,10,0,0,3608779.241525848,15.098880389979826,8.379107795739868,107.47147281914933,5.323609561363824
339,"Bergen St (2,3)",40.680829,-73.975098,0.784137123,54400,198,42657,1.893451176,0.789630472,0.802392366,11,21179,302,385.1367207,26,7.410857174,131935.9404,16.40365135,6.011534563,65.25667634,0.335569762,2.467541189,7.222722681,0.837863563,16.40365135,132608,12,13,8,1020.539066,0.193283914,0,0,0.0,0.0,0,0,0,0,0,0,0,7,70,1,7,1,10,0,0,3262067.7046455764,14.9978721240644,3.9497692204041526,90.49904179355607,5.237242281779788
340,"Grand Army Plaza (2,3)",40.675235,-73.971046,0.784137123,54006,200,42348,1.909906153,0.79649273,0.818004672,11,9349,204,260.1585796,24,6.565606201,150698.2739,17.56736771,5.587647083,66.4577668,0.561222508,2.941753116,5.080279897,0.796808439,17.56736771,147187,6,5,0,3305.249152,0.625994158,0,0,0.0,0.0,0,0,0,1,0,0,0,8,25,1,8,1,10,1,1,2755275.351964373,14.829028304781483,0.5489094949866009,60.20193279900904,5.061666825109857
341,"Eastern Pkwy-Brooklyn Museum (2,3)",40.671987,-73.964375,0.784137123,48734,247,38214,1.848232126,0.770772663,0.800188117,11,6423,209,266.5350153,21,9.283053703,113556.2233,13.82225167,7.868832014,66.6763712,0.941998677,2.98451818,5.519596238,0.772210331,13.82225167,114363,6,5,0,5051.356765,0.956696357,0,0,0.0,0.0,0,0,1,1,0,0,0,7,17,1,7,1,10,1,1,2402948.2348869294,14.692207388772163,0.2987488964161572,34.848830527573355,4.886584976900024
626,"Franklin Av-Medgar Evers College/Botanic Garden (2,3,4,5,S)",40.6705125,-73.958688,0.784137123,59270,155,46476,1.922099661,0.801577818,0.824791165,11,6525,189,241.0292722,22,12.40315358,82511.75427,10.9328505,10.60130465,67.54444424,0.891638556,3.027423715,4.188021989,0.974550601,10.9328505,86241,8,5,0,4081.918675,0.773090658,0,0,0.0,0.0,0,0,0,1,0,0,0,4,20,1,4,1,10,0,1,2196412.1622513225,14.60233620701656,0.8728774951361256,18.524310310796157,4.755104463877237
353,"President St-Medgar Evers College (2,5)",40.667883,-73.950683,0.784137123,66047,110,51790,1.717222038,0.716137213,0.789156474,11,6475,220,280.563174,26,14.94881834,70295.77403,8.831538007,12.91051259,65.5950091,0.679249235,2.441015383,6.486886368,0.978498958,8.831538007,75188,6,5,0,3887.668131,0.736300782,0,0,0.0,0.0,0,0,0,1,0,0,0,3,15,1,3,1,10,0,0,1902295.7079088911,14.458572507770123,1.0203374454299385,-4.721117608361311,4.531850403889238
354,"Sterling St (2,5)",40.662742,-73.95085,0.784137123,60810,147,47683,1.693133113,0.706091351,0.749006815,11,6478,172,219.3493906,22,16.99259618,64642.3619,7.856513648,14.35085553,62.82684723,2.146266226,1.474785102,7.770350413,0.9326412,7.856513648,68420,4,4,0,5746.688774,1.088388025,0,0,0.0,0.0,0,0,0,1,0,0,0,5,15,1,5,1,10,0,0,1705094.2123856945,14.349131510182053,0.45560866070201744,-16.931121684093167,4.390990795125841
355,"Winthrop St (2,5)",40.656652,-73.9502,0.784137123,61284,141,48055,1.783462724,0.743761725,0.802168854,11,16921,139,177.2649145,22,15.67998478,63422.18173,7.123282959,13.44291156,67.22059917,1.72336281,1.368584446,6.637169039,0.2470168,7.123282959,65244,6,2,0,7937.991235,1.503407431,0,0,0.0,0.0,0,0,0,1,0,1,0,1,10,1,1,1,10,0,0,1475513.8266061414,14.20451752184473,2.717347340755944,-34.08574208885752,4.152074587819632
356,"Church Av (2,5)",40.650843,-73.949575,0.784137123,55833,188,43781,2.080210391,0.867515114,0.857227967,11,14709,176,224.4505392,24,16.37513868,59288.22064,5.381244554,13.84373599,69.57077242,0.734110168,1.250686472,6.243071427,0.387268952,5.381244554,60261,6,2,0,10042.39149,1.901968085,0,0,0.0,0.0,0,0,0,1,0,1,0,0,7,0,0,1,7,0,0,1295198.9480176216,14.074175641210926,1.6840181680216024,-46.143731867532594,3.9417322143294147
357,"Beverly Rd (2,5)",40.645098,-73.948959,0.784137123,52771,209,41380,1.908368555,0.795851502,0.809097692,11,5510,215,274.1867383,15,19.86695153,59537.85026,4.8257955,17.43576885,68.34949624,0.772073186,0.89837067,5.011747602,0.191390161,4.8257955,62322,6,2,0,12130.1535,2.297377556,0,0,0.0,0.0,0,0,0,0,0,0,0,0,5,0,0,1,5,0,0,1146386.9777370666,13.952126668470653,-3.539434920022112,-52.46748409782852,3.8107429156143464
358,"Newkirk Av-Little Haiti (2,5)",40.639967,-73.948411,0.784137123,60176,150,47186,1.482675414,0.618323674,0.676985018,11,3300,190,242.3045594,5,21.98122289,59016.75047,4.683328608,18.63588062,66.54912798,0.727476597,0.951209467,4.663130853,0.369377759,4.683328608,63923,9,2,0,13997.88793,2.651115139,0,0,0.0,0.0,0,0,0,0,0,0,0,0,4,0,0,1,4,0,0,1026087.4612459597,13.841264520534134,-3.3138648547260665,-60.14932132087855,3.6243984532468363
359,"Flatbush Av-Brooklyn College (2,5)",40.632836,-73.947642,0.784137123,49259,241,38626,1.49641511,0.681047866,0.688362301,9,6505,191,243.5798465,0,27.53222909,63154.99188,5.218981088,23.57173383,59.51085572,0.734586684,0.400907723,5.951467886,0.650971808,5.218981088,67823,10,2,0,16596.5823,3.143292103,0,0,0.0,0.0,0,0,0,1,0,0,0,0,4,0,0,1,4,0,0,877442.5726196398,13.684767927547558,-1.6135361376199637,-68.34820912491517,3.377699088916048
343,Nostrand Av (3),40.669847,-73.950466,0.784137123,65964,111,51725,1.756344334,0.732452478,0.790806213,11,6572,206,262.7091539,23,14.61909356,72450.40587,10.38278577,12.40364151,64.40213657,0.545473238,3.442170807,5.691471774,0.878989139,10.38278577,75520,7,5,0,3173.373471,0.601017703,0,0,0.0,0.0,0,0,0,1,0,0,0,4,14,1,4,1,10,0,0,1978809.512725645,14.49800647099878,1.0850259569700482,-0.14684273298066586,4.579899922105128
344,Kingston Av (3),40.669399,-73.942161,0.784137123,66428,108,52089,1.698246359,0.70822374,0.772136018,11,7162,242,308.6194914,25,16.3027246,60891.38767,7.6397339,13.7226635,60.50725417,0.955902312,2.933929372,10.62983015,1.017386972,7.6397339,61104,7,4,0,3681.128001,0.697183334,0,0,0.0,0.0,0,0,0,0,0,0,0,3,11,1,3,1,10,0,0,1772424.3507640283,14.38785942127674,-1.1561736637929538,-17.40159799821948,4.385145271602022
345,"Crown Hts-Utica Av (3,4)",40.668897,-73.932942,0.784137123,67710,101,53094,1.783960074,0.743969136,0.786598151,11,6761,276,351.9792547,24,17.8012762,43568.61009,5.293518637,14.68722781,66.24954285,0.972971114,0.979371368,7.979924404,0.72339543,5.293518637,47427,9,4,0,5469.847822,1.035956027,0,0,0.0,0.0,0,0,0,0,0,0,0,1,3,1,1,1,3,0,0,1558223.5161008937,14.259057600358572,-2.8002012631233377,-37.21481826358408,4.101595876603603
346,Sutter Av-Rutland Rd (3),40.664717,-73.92261,0.784137123,56439,178,44256,1.697919217,0.708087312,0.739286416,11,3636,484,617.2389829,9,19.36029093,42367.41014,3.890107738,16.13148201,68.72835856,0.65996528,0.502371395,6.325101872,0.533804231,3.890107738,43931,10,4,0,6819.945547,1.291656354,0,0,0.0,0.0,0,0,0,0,0,0,0,0,3,0,0,1,3,0,0,1256635.3814292816,14.043949170807286,-3.235153872972729,-61.3915278492159,3.5907138413942365
347,Saratoga Av (3),40.661453,-73.916327,0.784137123,49275,239,38638,1.856215003,0.774101782,0.796167313,11,4388,397,506.2890004,0,20.74548688,36418.11623,2.481174601,16.84457353,68.62363265,0.683637705,0.414469805,6.471828796,0.579769566,2.481174601,36569,6,4,0,6436.63896,1.219060409,0,0,0.0,0.0,0,0,0,0,0,0,0,0,1,0,0,1,1,0,0,1086167.9545058217,13.898167342426875,-4.316310589499608,-71.68514057646156,3.256800999812485
348,Rockaway Av (3),40.662549,-73.908946,0.784137123,40888,311,32062,2.001428084,0.83466034,0.83054347,11,3912,356,454.0022271,0,19.03724555,27291.78202,2.109623294,15.16078312,70.42179264,1.059838057,0.191133749,6.846162872,0.334203833,2.109623294,28518,6,5,0,5123.210343,0.970304989,0,0,0.0,0.0,0,0,0,0,0,0,0,2,4,1,2,1,4,0,0,1004922.3717818873,13.820421849585168,-3.6749742626096777,-81.950364587009,2.753731652898388
349,Junius St (3),40.663515,-73.902447,0.784137123,41332,306,32410,1.95452427,0.81509993,0.812458262,11,3867,489,623.6154186,0,20.40568944,23176.96207,3.318598591,17.35137034,69.69551933,0.890123584,0.448145507,4.862329406,0.379594144,3.318598591,29287,6,5,0,4481.237419,0.848719208,0,0,0.0,0.0,0,0,0,0,0,0,0,2,3,1,2,1,3,0,0,934279.9489287781,13.747532473830113,-3.9180283127117157,-88.77583035409003,2.1833113511710596
350,Pennsylvania Av (3),40.664635,-73.894895,0.784137123,41920,298,32871,1.946761073,0.811862426,0.80984346,11,3685,333,424.6706225,0,25.45804843,34396.61283,3.480075379,22.54149528,64.82536905,0.504479279,0.711330576,3.747035074,1.273662211,3.480075379,39193,4,5,0,4626.142638,0.876163378,0,0,0.0,0.0,0,0,0,0,0,0,0,1,2,1,1,1,2,0,0,849667.4874838991,13.65260153766615,-4.290766245179101,-92.24255268083105,1.6880504986901987
351,Van Siclen Av (3),40.665449,-73.889395,0.784137123,46375,260,36364,1.635252754,0.681953367,0.729801412,11,3035,405,516.4912976,0,27.70602608,39734.96975,4.683419816,22.46102165,60.71419341,0.463370715,0.717231464,4.629475375,1.08628314,4.683419816,43353,6,4,0,5300.991502,1.003975663,0,0,0.0,0.0,0,0,0,0,0,0,0,1,3,1,1,1,3,0,0,788623.9723944445,13.578046166668443,-3.9291020176684075,-93.25550949734998,1.4806879609267922
352,New Lots Av (3),40.666235,-73.884079,0.784137123,44713,279,35061,1.445706176,0.602906304,0.648240035,11,3577,442,563.6769224,0,27.15644758,48176.5853,5.556718726,21.18099189,59.15108228,0.94415851,0.801818161,5.133772134,1.256002615,5.556718726,49130,7,4,0,6258.527314,1.185327143,0,0,0.0,0.0,0,0,0,0,0,0,0,1,4,1,1,1,4,0,0,730320.2425373613,13.501239774597687,-3.664446154981561,-92.96590851227859,1.5444875477336182
436,Harlem-148 St (3),40.82388,-73.93647,0.784137123,68199,99,53477,2.174889835,0.906999509,0.871090609,11,7042,911,1161.786598,22,8.490594286,51317.73432,7.776258793,7.375851421,73.40898722,0.628113094,2.863976836,6.451653773,0.34492358,7.776258793,51604,9,5,1,1890.498575,0.358048973,0,0,0.0,0.0,0,0,0,0,0,0,0,6,14,1,6,1,10,0,1,1425870.3978300933,14.170293692039706,-0.3354178094859318,50.86920934938221,5.000724259936729
437,145 St (3),40.820421,-73.936245,0.784137123,64267,123,50394,2.055813137,0.857340669,0.840665465,11,10648,915,1166.887747,20,10.35204124,49158.61065,8.020695666,8.773483681,70.92865292,0.762174934,2.478193695,6.508948492,0.808413239,8.020695666,51628,10,3,1,2498.750476,0.473248196,0,0,0.0,0.0,0,0,0,1,0,1,0,4,21,1,4,1,10,0,0,1535876.2780522574,14.244612292396416,3.658524410714885,52.39713101808418,5.010959304340217
378,Woodlawn (4),40.886037,-73.878751,0.784137123,19828,418,15548,0.693600634,0.301226928,0.274905809,10,17165,98,124.9781412,7,20.191262,33508.83997,4.787014765,13.78747774,60.2188669,1.013884064,0.011314609,13.77491208,0.002745576,4.787014765,37580,6,1,0,3452.760046,0.653931827,0,0,0.0,0.0,0,0,0,0,0,1,0,1,2,1,1,1,2,1,1,273426.2567345892,12.518790893747456,-3.361836878163559,-32.464217216348985,4.17726406911799
379,Mosholu Pkwy (4),40.87975,-73.884655,0.784137123,45715,270,35847,2.092947217,0.872826783,0.858300211,11,20548,309,394.0637308,20,19.32730278,43620.55943,5.48964858,15.23081675,64.03845538,0.868622481,0.858489505,9.247004504,0.136002164,5.48964858,47112,12,3,0,3782.946989,0.716467233,0,0,0.0,0.0,0,0,0,0,1,1,0,1,10,1,1,1,10,1,1,331812.8188444249,12.712329303985824,0.6676980448214198,-32.68082553845499,4.173935673396722
380,Bedford Park Blvd-Lehman College (4),40.873412,-73.890064,0.784137123,63587,130,49861,1.774461782,0.77063896,0.783704114,10,5493,339,432.3223454,25,16.50995173,42590.29387,5.58067534,14.35956637,68.45864029,1.323054672,0.748973468,6.957183872,0.275349895,5.58067534,43703,11,3,0,3153.01455,0.597161847,0,0,0.0,0.0,0,0,1,1,0,0,0,6,10,1,6,1,10,0,1,408097.84978191595,12.919264702918756,0.8184938529033552,-27.732647688426713,4.247335007875516
381,Kingsbridge Rd (4),40.86776,-73.897174,0.784137123,95491,25,74878,1.963344809,0.852669817,0.823949829,10,14183,299,381.3108592,22,16.36480429,38098.56369,5.349501783,13.58934742,67.45439617,0.874624747,0.392302126,8.19839585,1.268526273,5.349501783,40405,13,3,0,2920.341233,0.553094931,0,0,0.0,0.0,0,0,0,1,0,0,0,1,9,1,1,1,9,0,0,469301.111907815,13.059002001895578,2.1112464179031276,-21.43915071637052,4.333523230141502
382,Fordham Rd (4),40.862803,-73.901034,0.784137123,100796,14,79038,1.990690094,0.830182251,0.841423801,11,15296,410,522.8677334,24,16.2004887,37052.76009,5.551724225,12.97217656,68.61259354,0.866250657,0.625840964,7.820954226,0.321676113,5.551724225,38552,15,3,0,2930.353785,0.554991247,0,0,0.0,0.0,0,0,1,1,0,0,0,2,7,1,2,1,7,0,0,526273.0228741417,13.173577312103852,1.9559498389997507,-16.750807124534727,4.393222121539584
383,183 St (4),40.858407,-73.903879,0.784137123,103609,10,81244,1.981342092,0.826283831,0.841603724,11,12068,467,595.5591012,25,17.26856211,35817.28786,5.652602202,14.33925388,67.33041414,0.908723721,0.478687099,8.059662086,0.30134865,5.652602202,39232,11,3,0,2914.188845,0.551929706,0,0,0.0,0.0,0,0,0,1,0,0,0,1,5,1,1,1,5,0,0,581189.6052000389,13.272834046060417,1.2487210316334851,-12.746220519285904,4.441536021597261
384,Burnside Av (4),40.853453,-73.907684,0.784137123,101830,11,79849,1.99861164,0.833485792,0.83977462,11,11026,508,647.8458746,28,18.57726422,33484.17394,5.661448041,15.29065018,66.1301042,1.163000318,0.510856914,7.669457048,0.287869252,5.661448041,37381,12,3,0,3176.133589,0.601540453,0,0,0.0,0.0,0,0,0,1,0,0,0,2,7,1,2,1,7,0,0,648739.6916856328,13.382788365283204,1.7529933488467229,-8.555970932781825,4.489708911884314
385,176 St (4),40.84848,-73.911794,0.784137123,97357,23,76341,2.084467121,0.869290308,0.857400249,11,9432,660,841.6895221,28,18.92304188,35899.05797,5.402874912,14.89367477,66.57106916,0.974011019,0.464635555,7.26425734,0.400110136,5.402874912,37249,10,3,0,3010.939984,0.570253785,0,0,0.0,0.0,0,0,0,0,0,1,0,1,4,1,1,1,4,0,0,728845.8083686715,13.499218849496442,1.0015148553449624,-2.1864168630926084,4.55876033269427
386,Mt Eden Av (4),40.844434,-73.914685,0.784137123,97118,24,76154,2.10712115,0.878737772,0.858766382,11,9100,650,828.9366505,27,18.03168752,34847.09505,4.695847445,14.80768919,66.54756094,1.387622077,0.358431384,8.462568014,0.516282618,4.695847445,34670,11,3,0,3825.136532,0.724457677,0,0,0.0,0.0,0,0,0,0,1,1,0,0,1,0,0,1,1,0,0,799774.0742237079,13.592085809897599,0.2720386320987662,3.0152351574563205,4.611815194440241
387,170 St (4),40.840075,-73.917791,0.784137123,100649,15,78923,2.065993428,0.86158618,0.850476842,11,8246,626,798.3297588,26,16.9979623,34132.3881,3.574299868,13.79828585,68.50857122,1.535354367,0.426186096,8.357118288,0.581575926,3.574299868,36252,11,3,0,4086.987129,0.774050593,0,0,0.0,0.0,0,0,0,0,0,1,0,0,4,0,0,1,4,0,0,887295.3386023866,13.695934296366573,1.1933739760719209,7.579033005513881,4.656153290558191
388,167 St (4),40.835537,-73.9214,0.784137123,101475,12,79570,2.047639134,0.853931845,0.851734078,11,9363,473,603.2108242,25,15.16241409,30931.34723,3.657110643,12.39632756,69.91802179,1.734659706,0.471117015,8.482079877,0.574442942,3.657110643,37714,9,3,0,2797.96258,0.529917155,0,0,0.0,0.0,0,0,0,0,0,0,0,2,7,1,2,1,7,0,0,993689.4490768887,13.809181017697858,-0.5349183828263623,16.225057489786156,4.735114842934563
604,"161 St-Yankee Stadium (4,B,D)",40.8279495,-73.925741,0.784137123,58474,160,45852,2.172833531,0.906141964,0.867000562,11,11831,718,915.6561771,26,15.95791334,36897.57564,3.872294526,13.48717523,68.48002109,2.496849009,0.225563487,8.601555476,0.365803073,3.872294526,41309,7,3,1,1502.222087,0.284511759,0,0,0.0,0.0,0,0,0,0,0,0,1,3,5,1,3,1,5,0,0,1195017.9476521127,13.993672598997874,-2.5546564358894672,30.597785652722038,4.853975745599953
391,"138 St-Grand Concourse (4,5)",40.813224,-73.929849,0.784137123,41931,297,32880,2.030236576,0.846674415,0.829121408,11,17301,954,1216.623946,18,12.2407535,32440.79423,8.817367154,9.868297837,65.90327258,0.515260803,0.653892744,10.85446751,0.962473788,8.817367154,39408,9,5,0,3907.206907,0.740001308,0,0,0.0,0.0,0,0,0,1,0,0,0,0,14,0,0,1,10,0,0,1679141.1803796217,14.333793614058447,0.3305798689087359,55.07055843652392,5.0286195163478205
413,"Wall St (4,5)",40.707557,-74.011862,0.784137123,55117,196,43219,1.584442073,0.660763667,0.712981698,11,257737,875,1115.87626,33,3.759657719,186339.7265,11.76063367,3.165383136,52.09862748,2.091160855,0.554902409,28.58680928,1.015038776,11.76063367,179774,41,13,0,13301.24983,2.519176104,0,0,0.0,0.0,0,0,1,1,0,1,0,61,123,1,10,1,10,0,0,6123242.612118236,15.627602516067169,9.664251405813305,229.87503570271093,5.791569010869349
414,"Bowling Green (4,5)",40.704817,-74.014065,0.784137123,38514,328,30200,1.597350393,0.693720461,0.726876805,10,200974,724,923.3079,24,3.642780435,188075.0512,11.26066787,3.219053945,52.38666595,2.421758885,0.494892078,28.73444535,0.876810077,11.26066787,187897,39,10,0,13157.88449,2.492023578,0,0,0.0,0.0,0,0,1,1,0,0,0,51,96,1,10,1,10,0,0,5709005.671077557,15.557555603465167,5.18456087071282,214.00714574485042,5.74190843538252
442,Eastchester-Dyre Av (5),40.8883,-73.830834,0.784137123,14841,433,11637,2.21205105,0.92249694,0.877932947,11,2991,319,406.8166023,0,50.29266309,80114.48168,1.946762981,38.36213177,42.73121665,1.604457728,0.637434017,2.295730722,0.491734813,1.946762981,78358,2,1,0,8701.567079,1.648024068,0,0,0.0,0.0,0,0,0,0,0,0,0,1,2,1,1,1,2,0,0,135003.71201439187,11.813064960621753,-6.4095601111347085,-31.726677662093987,4.188514709572125
443,Baychester Av (5),40.878663,-73.838591,0.784137123,35707,344,27999,1.848498411,0.770883713,0.790882767,11,3094,410,522.8677334,0,34.87508344,68971.84382,3.26256454,29.05707124,51.56458845,1.938542986,0.474507492,6.292391025,1.592322059,3.26256454,70086,10,1,0,8980.081391,1.700772991,0,0,0.0,0.0,0,0,0,0,0,0,0,0,2,0,0,1,2,0,0,184715.99523552982,12.126580177306263,-5.002457314667208,-40.27910933359283,4.049562812156614
444,Gun Hill Rd (5),40.869526,-73.846384,0.784137123,32456,369,25450,1.37758833,0.626967468,0.595806956,9,1776,337,429.7717711,0,46.19735964,80239.50539,2.757468914,40.16346731,45.70385185,0.304806419,0.523357926,4.246549457,0.073545182,2.757468914,79026,7,1,0,7579.025202,1.43542144,0,0,0.0,0.0,0,0,0,0,0,0,0,0,1,0,0,1,1,0,0,245575.2459717831,12.41136275222167,-5.61406697635688,-44.86584480103698,3.9662390626285253
445,Pelham Pkwy (5),40.858985,-73.855359,0.784137123,31238,379,24495,1.314923302,0.571063934,0.591367395,10,6262,389,496.0867032,0,43.63969286,73412.93862,3.105131772,36.00484903,43.84167572,0.760209302,0.331822473,8.010451172,0.3110167,3.105131772,68606,5,1,0,8156.227526,1.544740062,0,0,0.0,0.0,0,0,0,0,0,0,0,0,2,0,0,1,2,1,1,325542.3329808925,12.693250859207549,-5.491065823567319,-48.079297092990146,3.903429815503859
446,Morris Park (5),40.854364,-73.860495,0.784137123,45743,269,35869,1.758197724,0.733225402,0.777367743,11,5953,387,493.5361289,0,32.17923956,61066.4956,4.507135281,27.335877,55.06270768,0.835371921,0.795436743,6.216239755,0.343434037,4.507135281,58665,9,2,0,7671.864968,1.453004729,0,0,0.0,0.0,0,0,0,0,0,0,0,2,4,1,2,1,4,1,1,373278.28516028926,12.830082172230624,-3.8871882538874614,-49.27168065014359,3.8790823245802266
360,Pelham Bay Park (6),40.852462,-73.828121,0.784137123,15585,427,12221,1.365046746,0.592832269,0.576639321,10,3121,449,572.6039324,0,39.11035725,73160.58721,5.64736465,33.82068357,48.17162025,0.954096256,0.000749303,2.63545676,3.480355532,5.64736465,69245,9,2,0,15216.9066,2.881989886,0,0,0.0,0.0,0,0,0,1,0,0,0,0,0,0,0,0,0,1,1,220905.25067982147,12.305493685430786,-4.162729173011822,-38.55555910950176,4.079161874372596
361,Buhre Av (6),40.84681,-73.832569,0.784137123,24193,404,18971,1.844091504,0.800878764,0.797149121,10,8978,334,425.9459097,0,44.56486625,63458.99433,4.460578071,40.72535632,43.83022134,1.356504094,0.655482376,2.840500834,2.291847036,4.460578071,63588,10,2,0,15723.08685,2.977857359,0,0,0.0,0.0,0,0,0,1,0,0,0,0,1,0,0,1,1,1,1,252669.20565647876,12.439840382414292,-3.414786459047906,-41.49373118183313,4.028164645152742
362,Middletown Rd (6),40.843863,-73.836322,0.784137123,20764,414,16282,1.888730477,0.787661787,0.796104969,11,10228,390,497.3619903,0,42.86306801,51138.26405,3.134890366,39.02919974,46.18159682,1.230352769,0.813668483,3.949009033,1.827414521,3.134890366,57647,9,2,0,15358.13124,2.908736978,0,0,0.0,0.0,0,0,0,0,0,1,0,0,2,0,0,1,2,1,1,279125.1874433801,12.539419243296885,-2.9816352357570084,-43.2534499597204,3.996327911170909
363,Westchester Sq-E Tremont Av (6),40.839892,-73.842952,0.784137123,21318,412,16716,2.12455464,0.886008102,0.86176195,11,11968,464,591.7332398,0,34.54957718,45109.38334,3.23376223,30.97196461,49.89409734,1.252743688,1.056847208,9.670100418,0.342871938,3.23376223,48327,8,2,0,14757.4504,2.794971668,0,0,0.0,0.0,0,0,0,0,0,0,0,4,5,1,4,1,5,1,1,325809.253644719,12.694070446860856,-4.647599319090349,-43.35224203412276,3.994510163469647
364,Zerega Av (6),40.836488,-73.847036,0.784137123,33465,361,26241,2.138512494,0.891828979,0.861824925,11,12383,448,571.3286453,0,30.41919566,52631.72694,3.033032688,26.98252768,55.91280334,1.602947422,0.296419657,8.331619034,0.324901147,3.033032688,52343,10,2,0,14818.73845,2.806579253,0,0,0.0,0.0,0,0,0,0,0,0,0,2,5,1,2,1,5,0,1,360062.4317183974,12.794035494128805,-4.003117618441703,-43.53225335580173,3.9911894838589075
365,Castle Hill Av (6),40.834255,-73.851222,0.784137123,51908,214,40703,1.857744187,0.774739501,0.791477414,11,10351,413,526.6935949,0,30.14052961,57674.56051,2.819640143,26.00618483,58.35934565,1.571588051,0.13512961,6.358494689,0.565122552,2.819640143,57579,8,2,0,14191.7677,2.687834791,0,0,0.0,0.0,0,0,0,0,0,0,0,0,3,0,0,1,3,0,0,395262.4290812867,12.88730773066478,-3.912649806772583,-42.95910739637406,4.001724229805022
366,Parkchester (6),40.833226,-73.860816,0.784137123,69858,91,54778,1.825840327,0.761434558,0.813153131,11,5711,499,636.3682902,0,26.79480101,54596.22063,3.375605151,21.76443466,61.96236936,1.281990004,0.438590475,5.899131273,0.214068044,3.375605151,54887,9,2,0,11881.23754,2.250234383,0,0,0.0,0.0,0,0,0,0,0,0,0,1,3,1,1,1,3,0,0,470456.85894764576,13.061461667466274,-3.1464955544383475,-43.51423413968618,3.991522382509677
367,St Lawrence Av (6),40.831509,-73.867618,0.784137123,61454,140,48188,1.830306643,0.794892075,0.809539098,10,3929,574,732.0148268,0,26.91012016,43764.50004,5.66196176,20.9047179,59.2922565,0.667206049,0.461483234,6.895640903,0.111331388,5.66196176,45386,8,2,0,10543.82333,1.996936237,0,0,0.0,0.0,0,0,0,0,0,0,0,1,1,1,1,1,1,0,1,535073.3670599434,13.190161020068365,-4.1043951293316185,-40.63244368482144,4.043385154338017
368,Morrison Av-Soundview (6),40.829521,-73.874516,0.784137123,63057,131,49445,1.775332959,0.740371349,0.76121601,11,4087,565,720.5372424,0,23.84820394,35113.77806,3.745964995,19.26218251,64.61382164,1.248531867,0.229486754,5.958286335,0.355704469,3.745964995,37090,6,1,0,9484.05194,1.796221958,0,0,0.0,0.0,0,0,0,0,0,0,0,0,2,0,0,1,2,1,1,610255.996485325,13.321635453138809,-4.121545431883007,-36.91599421376428,4.106528110118384
369,Elder Av (6),40.828584,-73.879159,0.784137123,53711,201,42117,2.106796245,0.878602276,0.84398868,11,5288,579,738.3912626,3,22.55343524,32069.21802,3.690062171,17.29153949,66.12592123,1.190597591,0.343631183,5.709409104,0.386943481,3.690062171,34705,6,1,0,8850.920402,1.676310682,0,0,0.0,0.0,0,0,0,0,0,0,0,1,1,1,1,1,1,0,1,663160.8856122771,13.404774410723926,-4.759255864790201,-33.03874474318612,4.168411506686982
370,Whitlock Av (6),40.826525,-73.886283,0.784137123,51823,215,40636,2.271875227,0.947445559,0.885176826,11,7286,594,757.5205699,12,22.86434362,34417.34447,3.147053708,18.00009555,64.65477388,1.35918893,0.495087652,7.049181181,0.430371029,3.147053708,34350,8,4,0,8016.37184,1.518252242,0,0,0.0,0.0,0,0,0,0,0,0,0,0,2,0,0,1,2,0,0,759064.7128153427,13.539843630779426,-3.7845701366907987,-26.523615557320824,4.264479142402536
371,Hunts Point Av (6),40.820948,-73.890549,0.784137123,47238,256,37041,2.334338821,0.973494901,0.898106891,11,11940,783,998.5498421,17,19.16599729,31412.8398,3.898567797,16.44651586,64.07677729,0.615966274,0.695672613,10.86221705,0.684801689,3.898567797,32241,9,4,0,7052.658391,1.335730756,0,0,0.0,0.0,0,0,0,0,0,0,0,5,7,1,5,1,7,0,0,867868.5957184511,13.67379674700862,-2.5543823198947946,-17.92362444666572,4.378619009638824
372,Longwood Av (6),40.816104,-73.896435,0.784137123,47934,251,37587,2.186467943,0.911827955,0.866587528,11,13066,623,794.5038974,16,19.50355625,32763.18997,4.34794199,14.93899531,63.04786361,0.95724884,1.227795247,10.14846917,0.767124897,4.34794199,35105,7,4,0,6280.381929,1.189466275,0,0,0.0,0.0,0,0,0,0,0,0,0,1,9,1,1,1,9,0,0,1012748.1012875147,13.828179073666384,-2.125729086333826,-6.280384209437321,4.5149291722438605
373,E 149 St (6),40.812118,-73.904098,0.784137123,41141,309,32260,2.113467364,0.881384349,0.853017126,11,6854,429,547.0981894,14,19.20038536,31391.11704,6.003171552,14.93066557,64.67764329,0.860333689,1.066092378,7.796689404,0.395684328,6.003171552,34478,4,3,0,5848.301455,1.107632851,0,0,0.0,0.0,0,0,0,0,0,0,0,0,5,0,0,1,5,0,0,1211782.3980649712,14.007603715172218,-3.931635408183743,9.853288676553257,4.6775351914181105
374,E 143 St-St Mary's St (6),40.808719,-73.907657,0.784137123,35426,345,27779,2.154512099,0.898501333,0.856581895,11,6993,489,623.6154186,14,18.82919984,27073.84084,3.85520186,14.63631917,68.13544515,0.902297564,0.35632604,7.121386738,0.800142802,3.85520186,28279,4,1,0,6553.386777,1.241171738,0,0,0.0,0.0,0,0,0,0,0,0,0,0,0,0,0,0,0,0,0,1344829.053561464,14.111778208805314,-5.8982621684399055,21.2753252228353,4.778508208197823
375,Cypress Av (6),40.805368,-73.914042,0.784137123,31695,373,24853,1.857940905,0.774821539,0.755571983,11,7246,611,779.2004515,16,13.62643075,26039.96728,2.002207303,9.879208007,69.71547043,1.999943214,1.306910242,8.082443196,3.266594863,2.002207303,26214,2,1,0,6951.122846,1.316500539,0,0,0.0,0.0,0,0,0,0,0,0,0,0,1,0,0,1,1,0,0,1563317.1367986025,14.262321131109198,-5.924208044688419,37.82014076018511,4.908762165637875
376,Brook Av (6),40.807566,-73.91924,0.784137123,51032,219,40016,2.113769537,0.881510365,0.860508616,11,10242,722,920.7573257,20,13.09018878,24634.47081,3.563493492,10.05618035,66.91874046,1.601731653,1.180117928,11.17798923,2.467738451,3.563493492,27934,7,2,0,5581.022023,1.057011747,0,0,0.0,0.0,0,0,0,0,0,0,0,1,8,1,1,1,8,0,1,1629762.3902472414,14.303945402888786,-2.712071954262669,42.63172594616002,4.943663267463462
377,3 Av-138 St (6),40.810476,-73.926138,0.784137123,43350,286,33992,2.098356303,0.875082547,0.84719221,11,14903,842,1073.791784,16,12.23955018,26469.53404,4.266074857,9.613810477,66.22099388,1.313840778,1.111103909,12.64504753,2.203388869,4.266074857,30861,6,4,0,4090.097557,0.774639689,0,0,0.0,0.0,0,0,0,0,0,0,0,2,7,1,2,1,7,0,0,1696444.1478772033,14.344045530162171,-2.886715726368621,54.13640628894471,5.0224840507224595
392,"125 St (4,5,6)",40.804138,-73.937594,0.784137123,57152,169,44815,2.087292047,0.870468394,0.851728053,11,19531,714,910.5550284,20,10.33101417,49258.41039,7.114849409,8.804473296,71.03957531,0.626942444,1.758777523,8.593570845,0.324737511,7.114849409,44858,20,6,1,568.4699198,0.107664758,0,0,0.0,0.0,0,0,1,1,1,1,0,11,30,1,10,1,10,0,0,2212121.2749112304,14.609462918085393,4.763498957059754,86.76998475162101,5.217223698843102
393,116 St (6),40.798629,-73.941617,0.784137123,83905,52,65793,1.787865763,0.745597934,0.77381467,11,15922,620,790.6780359,21,7.935060346,40985.16168,7.111969889,6.314446213,72.42535449,0.572175335,1.763940606,8.443176122,1.539564162,7.111969889,42465,24,6,1,2474.583674,0.46867115,0,0,0.0,0.0,0,0,0,1,0,1,0,2,29,1,2,1,10,0,1,2616795.97989648,14.777461601084765,6.108443839595093,107.18580061529326,5.322215903008523
394,110 St (6),40.79502,-73.94425,0.784137123,89556,39,70224,1.61907725,0.675207657,0.717829659,11,15971,605,771.5487286,21,7.351047098,41225.68601,7.022904212,6.047095299,70.98536023,0.398911658,2.031306671,10.63725575,1.398026929,7.022904212,42880,12,5,0,3954.079912,0.748878771,0,0,0.0,0.0,0,0,0,1,0,0,0,4,28,1,4,1,10,0,1,2923686.00736086,14.88835605149609,2.501455945889722,124.8241402778979,5.404817516595139
395,103 St (6),40.7906,-73.947478,0.784137123,85095,47,66726,1.717983775,0.716454882,0.78379671,11,39046,587,748.5935598,21,6.272606971,69317.65061,9.910976606,5.44784795,63.95843967,1.421374358,1.593325501,15.60030543,1.098025,9.910976606,63393,19,6,0,5783.288079,1.095319712,0,0,0.0,0.0,0,0,0,1,0,1,0,11,27,1,10,1,10,0,1,3333749.467092146,15.019608494588482,5.662507517264135,140.3646932248449,5.472338619337499
396,96 St (6),40.785672,-73.95107,0.784137123,99100,21,77708,1.811701779,0.755538325,0.798385287,11,47919,537,684.8292021,19,7.243172167,111118.63,10.7552014,5.913497189,60.75192225,3.15969384,1.58784325,15.07619187,1.405487346,10.7552014,100333,22,7,0,7828.890194,1.482744355,0,0,0.0,0.0,0,0,0,1,0,1,0,13,51,1,10,1,10,0,1,3886047.7360554766,15.172903450285933,6.75232081827419,161.76243024178632,5.558424888929291
397,"86 St (4,5,6)",40.779492,-73.955589,0.784137123,113656,2,89122,1.737196586,0.724467247,0.795149693,11,44185,272,346.8781061,19,7.507000438,136885.9469,12.9118076,5.518814645,58.48834839,4.145954034,1.328733764,14.28510871,1.327733299,12.9118076,140354,24,7,0,10399.8535,1.969669224,0,0,0.0,0.0,0,0,0,1,0,1,0,8,56,1,8,1,10,0,1,4726008.264514095,15.368591697055908,7.453745127350236,191.53097148861042,5.667057803386727
398,77 St (6),40.77362,-73.959874,0.784137123,99281,20,77850,1.725926377,0.719767204,0.790483971,11,46281,262,334.1252345,20,9.103205619,123075.5101,13.51027316,6.430687965,50.79393941,4.113386254,0.936494917,20.32007371,1.222626918,13.51027316,147333,24,7,0,7990.793409,1.513407843,0,0,0.0,0.0,0,0,1,1,1,1,0,17,48,1,10,1,10,0,1,5683967.34476051,15.553160199000036,6.876987294241587,224.32092164716414,5.77446582770994
399,68 St-Hunter College (6),40.768141,-73.96387,0.784137123,78644,66,61668,1.616459289,0.702019349,0.757432982,10,80456,274,349.4286804,19,9.63773947,135266.4747,13.34195079,6.987250375,44.07295599,4.796657187,0.789889862,25.99082968,1.369977017,13.34195079,147707,25,10,0,5714.906802,1.082368712,0,0,0.0,0.0,0,0,1,1,0,1,0,23,42,1,10,1,10,0,1,6696394.768203998,15.717079994572668,7.079154545779483,257.68808178519646,5.87307383985795
613,"Lexington Av/59 St (4,5,6,N,R,W)",40.762593,-73.9676125,0.784137123,65434,115,51309,1.694599717,0.706702972,0.77100898,11,193434,371,473.1315344,24,6.779980021,153185.3721,13.04807094,5.340305707,38.9574373,4.205232912,1.216746049,34.80859503,0.983937745,13.04807094,148992,77,12,0,3471.340462,0.657450845,0,0,0.0,0.0,0,0,0,1,1,1,0,7,57,1,7,1,10,0,1,7661200.173624687,15.851679340601343,11.625694068180644,285.86769956841175,5.949389627279183
612,"Lexington Av/51-53 Sts (6,E,F)",40.7573295,-73.9704875,0.784137123,58663,158,46000,1.537171286,0.641050217,0.71699563,11,368279,424,540.7217536,31,7.342659238,145187.6829,13.98900359,5.56631639,35.63173353,2.949714985,0.920567311,38.25177032,0.914551031,13.98900359,148372,76,10,10,1586.701535,0.300511654,0,0,0.0,0.0,0,0,1,1,0,0,0,14,70,1,10,1,10,0,1,8225882.551315565,15.922796271498658,14.273500334073262,303.8981752434311,5.9953311960677675
610,"Grand Central-42 St (4,5,6,7,S)",40.751992,-73.97735933,0.784137123,55707,192,43682,1.568827582,0.681333162,0.691483393,10,461824,342,436.1482069,34,5.894427986,125320.7157,12.28468239,4.235434009,33.76860987,1.650691305,1.034281438,44.37585651,0.991450506,12.28468239,144356,78,12,10,376.0301109,0.071217824,0,0,0.0,0.0,0,0,1,1,0,0,0,30,107,1,10,1,10,0,0,8984658.327309841,16.01102916176699,15.687580415796193,331.56026913840134,6.061950381144924
403,33 St (6),40.746081,-73.982076,0.784137123,80554,58,63165,1.606575729,0.697726974,0.736983667,10,349679,320,408.0918895,33,4.055877184,118268.1446,12.57576634,2.877863435,38.17753836,2.669913052,2.166107331,39.45296562,0.901832112,12.57576634,147527,81,16,0,2878.450618,0.545161102,0,0,0.0,0.0,0,0,1,1,0,0,0,40,110,1,10,1,10,0,0,9227511.645173589,16.0377000842645,12.583949353801486,343.9332632186261,6.090369941856161
404,28 St (6),40.74307,-73.984264,0.784137123,87049,43,68258,1.687242794,0.703634897,0.770024381,11,263876,286,364.7321262,33,5.683975997,115185.2085,12.51342436,4.482050686,41.1264519,3.120332107,2.638180153,33.88012773,0.980720823,12.51342436,147269,64,12,0,3764.622889,0.712996759,0,0,0.0,0.0,0,0,1,1,0,0,0,33,128,1,10,1,10,0,0,9208830.497047322,16.03567352689763,9.96655953938695,346.3044499806797,6.095725297086075
405,23 St-Baruch College (6),40.739864,-73.986599,0.784137123,86931,44,68166,1.761269875,0.734506588,0.793907139,11,223723,302,385.1367207,36,6.360524211,126404.63,12.3281305,5.012823543,46.40336935,3.34754864,3.224675756,27.618299,0.609029981,12.3281305,159701,50,12,0,4360.374943,0.825828588,0,0,0.0,0.0,0,0,1,1,0,1,0,36,137,1,10,1,10,0,0,9022793.711934615,16.01526467907586,11.025311337310077,341.09550886164334,6.08392290810055
602,"14 St-Union Sq (4,5,6,L,N,Q,R,W)",40.735066,-73.99041633,0.784137123,90146,34,70687,1.854722244,0.773479253,0.817968293,11,183964,305,388.9625822,37,5.801440796,146499.9986,13.80416235,4.568028812,49.25416231,3.134752968,3.491715646,23.85578559,0.548915576,13.80416235,158280,43,12,0,5723.03713,1.083908547,0,0,0.0,0.0,0,0,0,1,0,1,0,47,154,1,10,1,10,0,0,8598958.631003471,15.967151780766764,10.273567153276842,330.21722902666164,6.058816390156685
407,Astor Pl (6),40.730054,-73.99107,0.784137123,95388,27,74797,1.864578049,0.777589443,0.813899348,11,121752,391,498.6372775,42,5.339129215,125302.9535,13.96775909,3.897983793,46.39601777,2.533425663,5.026428939,25.92148372,0.652839223,13.96775909,127004,24,14,0,7513.716367,1.423052342,0,0,0.0,0.0,0,0,1,1,0,0,0,79,178,1,10,1,10,0,0,8167343.199542891,15.915654346614923,6.567385098572126,315.9831655251795,6.024983081577679
619,"Broadway-Lafayette St/Bleecker St (6,B,D,F,M)",40.725606,-73.9954315,0.784137123,77136,70,60485,1.808192723,0.754074935,0.801481079,11,111441,512,652.9470232,43,5.254615018,106805.9546,15.28288647,3.56173286,45.34186238,2.674522354,4.327879357,26.01441211,0.840674468,15.28288647,104755,22,17,0,9116.279395,1.726568067,0,0,0.0,0.0,0,0,1,1,0,0,0,41,162,1,10,1,10,0,0,7823088.500379614,15.8725901112741,6.2023087747588495,303.25278375876394,5.993722651050721
409,Spring St (6),40.722301,-73.997141,0.784137123,70587,88,55350,1.667594445,0.695440899,0.760884624,11,115593,531,677.1774791,40,5.697503161,103791.1813,14.73534026,3.763896393,47.12911541,2.64242809,3.24544419,25.83493794,0.700378563,14.73534026,100305,20,19,0,10353.03901,1.960802842,0,0,0.0,0.0,0,0,1,1,0,0,0,40,154,1,10,1,10,0,0,7574093.033171467,15.840244302625782,6.263498706864681,292.3999298851872,5.966278546534779
623,"Canal St (6,J,Z,N,Q,R,W)",40.71870125,-74.00058,0.784137123,59456,153,46622,1.665263914,0.694468993,0.755817379,11,148240,547,697.5820736,37,6.992626004,113440.3104,15.12100092,3.86717815,45.45184311,2.886487952,2.410412756,26.01021636,1.1274129,15.12100092,106352,20,17,0,11778.17822,2.230715572,0,0,0.0,0.0,0,0,0,1,0,0,0,46,131,1,10,1,10,0,0,7272389.130522259,15.799595561712074,5.716569366453097,280.7682451691071,5.936003959397998
622,"Brooklyn Bridge-City Hall/Chambers St (4,5,6,J,Z)",40.713154,-74.003766,0.784137123,69943,90,54845,1.580011057,0.65891579,0.73156183,11,196662,827,1054.662477,37,6.822757711,146159.513,12.22820881,4.455986824,47.18564498,1.857691867,1.567816881,29.09281504,1.245064705,12.22820881,115955,38,16,0,13291.28694,2.517289192,0,0,0.0,0.0,0,0,1,1,1,1,0,25,132,1,10,1,10,0,0,6830348.57810089,15.736886412975233,10.078829388546927,258.5135516723873,5.875394191037332
447,Flushing-Main St (7),40.7596,-73.83003,0.784137123,56697,173,44458,2.124716468,0.88607559,0.853160446,11,39946,349,445.075217,0,29.45598569,33941.43533,3.664801832,14.21810963,42.62835407,0.223653666,0.268702054,22.82241035,0.935949637,3.664801832,41522,20,2,1,720.4089385,0.136441087,0,0,0.0,0.0,0,0,0,0,0,0,0,7,22,1,7,1,10,0,1,435010.87853214564,12.983128616668443,-0.3691015704030469,-14.052400018557456,4.42603249580143
448,Mets-Willets Point (7),40.754622,-73.845625,0.784137123,4391,460,3443,1.361423293,0.567757612,0.616788574,11,3872,432,550.9240508,4,22.03534276,57059.84042,0.640383092,11.52967387,66.90281002,1.222874063,0.482593108,8.637666613,0.078330343,0.640383092,57962,3,2,1,969.8523388,0.183684155,0,0,0.0,0.0,0,0,0,0,0,0,0,0,0,0,0,0,0,1,1,652367.5533503671,13.388364947081012,-6.6765127217157945,-10.63279896489318,4.466122801679398
449,111 St (7),40.75173,-73.855334,0.784137123,47925,252,37580,1.964438464,0.81923447,0.826208512,11,3712,369,470.5809601,18,20.02791689,60582.55495,2.074009616,12.71621702,67.23216644,0.346480296,0.679531607,9.129896082,0.509999068,2.074009616,57857,4,1,0,3232.387168,0.612194539,0,0,0.0,0.0,0,0,0,0,0,0,0,0,4,0,0,1,4,1,1,804915.1209727476,13.598493353422377,-4.367757552148348,-11.222689216140052,4.4593208283747146
450,103 St-Corona Plaza (7),40.749865,-73.8627,0.784137123,80519,59,63138,1.566248257,0.653176256,0.715562672,11,6080,286,364.7321262,25,17.93852178,61662.98506,1.716220933,11.44923722,67.91310037,0.206320599,0.931433744,10.66143984,0.476686465,1.716220933,60065,4,2,0,5344.434105,1.012203429,0,0,0.0,0.0,0,0,0,0,0,0,0,0,3,0,0,1,3,0,1,941482.960534887,13.755212590858697,-3.034255249111192,-9.139662646047151,4.48313605436771
451,Junction Blvd (7),40.749145,-73.869527,0.784137123,91108,32,71441,1.73139728,0.751936285,0.771119869,10,7639,312,397.8895923,24,17.55273841,60321.63454,1.744758335,11.23623634,68.30092064,0.167522896,0.955445441,10.79512811,0.321547839,1.744758335,59152,5,2,0,7253.219188,1.373715755,0,0,0.0,0.0,0,0,0,0,0,0,0,0,2,0,0,1,2,0,0,1086638.5370005127,13.898600498412678,-2.770906281975975,-3.9784013877016626,4.539810816103486
452,90 St-Elmhurst Av (7),40.748408,-73.876613,0.784137123,100547,16,78843,1.764459101,0.735836598,0.791758913,11,10081,299,381.3108592,23,17.95435549,56230.13131,3.62075029,12.58347373,67.50833433,0.437484404,0.797423292,9.180671808,0.396992338,3.62075029,57091,6,6,0,7363.735944,1.394646959,0,0,0.0,0.0,0,0,0,0,0,1,0,0,4,0,0,1,4,0,0,1260589.8030446763,14.047091060337783,1.5098131744734107,-0.540638342223339,4.575853007076879
453,82 St-Jackson Hts (7),40.747659,-73.883697,0.784137123,98586,22,77305,1.731713194,0.752073484,0.789920513,10,15468,295,376.2097106,25,17.70917417,58074.83257,6.878181454,12.63717382,64.62606221,0.678446234,0.75462733,8.481264073,0.729547728,6.878181454,60274,7,7,0,5382.191261,1.019354405,0,0,0.0,0.0,0,0,0,0,1,1,0,2,9,1,2,1,9,0,0,1459191.7869819445,14.193393955158095,3.069294054183426,6.3415605012607585,4.6443239631927415
616,"Jackson Hts-Roosevelt Av/74 St-Broadway (7,E,F,M,R)",40.746746,-73.891366,0.784137123,74247,83,58220,1.840562609,0.767574226,0.814641453,11,14584,512,652.9470232,28,17.87820626,59336.34145,6.932225901,13.84938643,62.54403145,1.350476469,1.045016612,9.459106195,0.615237793,6.932225901,61783,9,7,0,3233.258813,0.612359624,0,0,0.0,0.0,0,0,0,0,0,1,0,4,8,1,4,1,8,0,0,1715432.113909793,14.355176151251985,1.9195994598204693,16.995357715834817,4.7418564128384695
455,69 St (7),40.746325,-73.896403,0.784137123,57620,164,45182,1.957986085,0.816543619,0.824093696,11,8812,691,881.2234239,25,22.22723778,61144.58081,6.269632312,16.76212171,59.38236547,1.287851524,0.833666179,9.619210026,0.162680851,6.269632312,62282,8,7,9,1829.255497,0.346449905,0,0,0.0,0.0,0,0,0,0,0,0,0,3,12,1,3,1,10,0,0,1908978.1341496923,14.462079172396548,2.8134477552009303,22.800843465744464,4.791254005411435
456,61 St-Woodside (7),40.74563,-73.902984,0.784137123,49570,233,38870,2.117601421,0.883108385,0.853855199,11,9979,681,868.4705523,30,20.77218467,64196.81234,3.950688999,15.36390944,64.29902665,1.231721062,1.020579348,8.260288597,0.390263691,3.950688999,66399,5,6,9,80.43444671,0.015233797,0,0,0.0,0.0,0,0,0,0,0,0,0,4,9,1,4,1,9,0,0,2186487.3456409816,14.59780731967729,1.8155865470920107,33.048157990291195,4.87290183855553
457,52 St (7),40.744149,-73.912549,0.784137123,49269,240,38634,2.073600445,0.864758553,0.848329176,11,10028,404,515.2160105,23,19.62922265,73572.26312,6.455071984,15.86879879,66.2002051,0.55208483,1.189939005,4.993841867,0.833537904,6.455071984,73476,8,2,0,2724.331404,0.515971857,0,0,0.0,0.0,0,0,0,0,0,0,0,1,6,1,1,1,6,0,0,2667706.7749497686,14.796730150389822,-3.2427164098428074,54.45801907850182,5.0246006396008855
458,46 St-Bliss St (7),40.743132,-73.918435,0.784137123,57170,168,44829,2.048142069,0.854141585,0.843887327,11,10164,392,499.9125646,24,18.56181202,73348.57725,6.584351648,15.8014396,66.11555199,0.667337785,1.629639454,5.69849141,0.580757625,6.584351648,72799,5,2,0,4396.875348,0.832741543,0,0,0.0,0.0,0,0,0,0,0,0,0,2,6,1,2,1,6,0,0,3012939.9676697403,14.9184272253781,-3.1136465160089424,67.98537787402672,5.109797779187217
459,40 St-Lowery St (7),40.743781,-73.924016,0.784137123,43126,289,33817,2.011501716,0.838861371,0.834696912,11,23816,297,378.7602849,26,18.05669027,76058.1641,6.634339669,14.89678876,65.66961582,0.746485587,1.94081579,6.123307313,0.702258884,6.634339669,75237,5,2,0,5878.858733,1.113420215,0,0,0.0,0.0,0,0,0,1,0,0,0,1,7,1,1,1,7,0,0,3385024.749965993,15.034872071379636,-1.240365198225914,84.10270731967393,5.20265514620474
460,33 St-Rawson St (7),40.744587,-73.930997,0.784137123,16544,426,12973,1.915808495,0.798954198,0.794617896,11,31438,295,376.2097106,21,14.79532556,80828.38324,6.248775386,12.12717666,69.11083359,0.684343518,2.422102279,6.231712357,0.458837397,6.248775386,78201,8,6,0,4448.80107,0.84257596,0,0,0.0,0.0,0,0,1,1,0,0,0,5,10,1,5,1,10,0,0,3922734.717768261,15.182299855542405,-0.4336359543574875,109.4229719140059,5.333078391921172
461,"Queensboro Plaza (7,N,W)",40.750582,-73.940202,0.784137123,20573,415,16132,2.061518674,0.859720062,0.843933842,11,40126,548,698.8573608,20,11.93511959,96947.71629,8.467864347,8.462513479,70.93937162,0.405177285,0.965049432,5.472186219,1.5878005,8.467864347,106025,13,10,0,3498.446867,0.662584634,0,0,0.0,0.0,0,0,0,0,1,1,0,2,13,1,2,1,10,0,0,4805934.299964732,15.385362232841851,1.3790925345312794,155.14968074045066,5.53260324744221
606,"Court Sq-23 St (7,E,F,G)",40.747141,-73.945032,0.784137123,17082,424,13395,2.038952927,0.850309415,0.828233601,11,39750,621,791.9533231,23,9.849400192,122456.5793,9.6706519,8.621489927,73.97301722,0.118387232,1.034653654,3.865476448,1.272379751,9.6706519,122466,13,9,3,1798.017421,0.340533602,0,0,0.0,0.0,0,0,0,1,0,1,0,12,15,1,10,1,10,0,0,5253737.68692816,15.474450511966413,4.27672495126382,169.5381643560218,5.587958678744602
463,Hunters Point Av (7),40.742216,-73.948916,0.784137123,14940,430,11715,1.955123616,0.815349877,0.80645487,11,25023,533,679.7280534,21,10.31969616,142380.5924,12.27593524,9.012924088,71.1649177,0.140038299,1.282412658,4.608267964,0.182295238,12.27593524,139718,9,6,3,592.5521738,0.11222579,0,0,0.0,0.0,0,0,0,0,0,0,0,3,11,1,3,1,10,0,0,5532259.039674545,15.526106977110778,-1.3497452343245375,182.3950741730753,5.6349558485144895
464,Vernon Blvd-Jackson Av (7),40.742626,-73.953581,0.784137123,23014,407,18046,2.145814929,0.894874331,0.857141177,11,19044,518,660.5987461,19,8.529931603,146272.8841,12.29379255,7.488761205,73.6588448,0.199359477,1.440147228,3.731328452,0.14347454,12.29379255,142881,6,3,3,1217.777545,0.230639687,0,0,0.0,0.0,0,0,0,1,0,0,0,2,8,1,2,1,8,0,0,6053059.616428852,15.616074589102363,-0.3823361661084923,204.9693510251866,5.712480633810908
609,"42 St-Bryant Pk/5 Av (7,B,D,F,M)",40.7540215,-73.983266,0.784137123,23384,406,18336,1.154329097,0.481392624,0.495056434,11,630680,227,289.4901841,36,4.862545511,131646.1088,10.94415451,2.994035365,36.0001757,1.889973241,1.260184874,43.29791349,1.745052668,10.94415451,126064,70,22,10,1760.47721,0.333423714,0,0,0.0,0.0,0,0,1,1,0,0,0,42,188,1,10,1,10,0,0,9227039.33447631,16.037648897904376,17.693873393527785,344.6847478948583,6.092070285856539
471,34 St-Hudson Yards (7),40.755882,-74.00191,0.784137123,34458,355,27020,2.070482049,0.86345808,0.855554672,11,80854,483,615.9636957,20,5.462663468,120291.9816,10.86287177,3.808347531,44.2192241,3.431747969,2.354253857,31.50878163,2.160457205,10.86287177,121507,12,2,0,3006.786619,0.569467163,0,0,0.0,0.0,0,0,0,0,0,0,0,5,51,1,5,1,10,0,0,8003923.345318878,15.895442522532004,-1.806168294149421,305.22331402625923,5.99862582488711
143,Inwood-207 St (A),40.868072,-73.919899,0.784137123,53367,204,41847,1.842021225,0.768182516,0.776764476,11,5813,232,295.8666199,18,12.66258798,63381.80986,8.874252966,8.835406264,64.67898047,1.073203463,0.303924198,10.61604908,1.353623715,8.874252966,64441,6,2,0,2831.649742,0.5362973,0,0,0.0,0.0,0,0,0,0,0,1,0,9,18,1,9,1,10,1,1,502794.56934731186,13.127938943700995,0.21715068173507768,-5.231911091294389,4.526338723563208
144,Dyckman St (A),40.865491,-73.927271,0.784137123,64894,119,50886,1.612953253,0.672653752,0.700634301,11,5173,313,399.1648794,16,11.72913663,56428.36928,7.412883817,8.87163957,66.97200498,1.049990021,0.032200621,11.54260737,1.013394498,7.412883817,57572,7,2,0,4088.603821,0.774356784,0,0,0.0,0.0,0,0,0,0,0,0,0,4,14,1,4,1,10,1,1,536024.5347516065,13.191937078380167,-1.66562048397587,2.094851566367571,4.602630262706408
145,190 St (A),40.859022,-73.93418,0.784137123,67301,104,52773,1.811200428,0.755329246,0.795763702,11,6573,261,332.8499474,14,9.124151979,65070.25242,9.518987056,6.633660247,69.40781621,0.619551687,0.566036939,10.2292483,0.534207821,9.518987056,66059,6,2,0,4396.06478,0.832588027,0,0,0.0,0.0,0,0,0,0,0,0,0,4,19,1,4,1,10,1,1,628021.7448109431,13.350331662646305,-1.6178855364524736,10.993042484642109,4.688081276325468
146,181 St (A),40.851695,-73.937969,0.784137123,88610,40,69482,2.012903455,0.839445941,0.848891032,11,12613,613,781.7510258,17,12.20757781,64859.77268,8.447794738,8.355272876,67.21108179,0.458535392,0.577984187,10.0131587,1.041106492,8.447794738,74088,12,2,0,5170.999684,0.979356001,0,0,0.0,0.0,0,0,0,1,0,0,0,22,38,1,10,1,10,1,1,750103.1333220992,13.527967320303963,1.7898008368179787,17.538305563117625,4.746581063393432
147,175 St (A),40.847391,-73.939704,0.784137123,85018,48,66666,1.921867591,0.83465649,0.823759339,10,24721,701,893.9762954,15,14.0069603,62407.92728,7.335589047,8.918900241,64.84060134,0.297837022,0.506747548,11.90525795,1.060532001,7.335589047,72441,13,3,0,4762.398399,0.901969394,0,0,0.0,0.0,0,0,0,0,0,1,0,9,33,1,9,1,10,1,1,823870.4026288874,13.621769731941468,2.415311196986679,22.56114584127956,4.789262043494137
149,163 St-Amsterdam Av (C),40.836013,-73.939892,0.784137123,77471,68,60748,1.816616926,0.788946707,0.799460625,10,21173,548,698.8573608,24,10.92845017,47148.15962,6.164432173,6.492104952,68.08473905,0.506197252,0.988404142,13.00128609,0.205892036,6.164432173,48845,10,5,1,2322.560218,0.439878829,0,0,0.0,0.0,0,0,0,1,0,1,0,9,29,1,9,1,10,1,1,1086646.7762207168,13.898608080677715,4.743256249108574,33.98714936479643,4.880060499817334
150,155 St (C),40.830518,-73.941514,0.784137123,90303,33,70810,1.932899496,0.806081699,0.834568333,11,6591,636,811.0826304,26,8.579041147,54618.9651,9.323557616,6.272332089,73.20922535,0.245985192,1.471440896,6.756855316,0.31218504,9.323557616,53496,10,5,0,3394.732073,0.64294168,0,0,0.0,0.0,0,0,0,1,0,0,0,13,38,1,10,1,10,1,1,1258354.735933812,14.045316455229782,2.3002413089538747,44.904915155628416,4.9597376656239325
151,"145 St (A,C,B,D)",40.824783,-73.944216,0.784137123,100202,18,78572,1.920020087,0.800710569,0.827053104,11,8410,568,724.3631039,27,7.729472244,59086.95878,9.622742919,6.088629097,73.33241823,0.471527585,2.199265741,6.194039295,0.310863494,9.622742919,58004,14,6,0,3966.581914,0.751246575,0,0,0.0,0.0,0,0,0,0,0,0,0,11,35,1,10,1,10,0,1,1460339.7079199469,14.194180328048944,1.1580742904301065,57.254673020565384,5.042819458794572
152,"135 St (C,B)",40.817894,-73.947649,0.784137123,93915,30,73642,1.979796837,0.825639409,0.838172773,11,10795,486,619.7895572,25,8.732626239,54479.44269,10.58543231,6.793224868,69.65012524,0.41813372,1.281085725,8.458577532,0.737170495,10.58543231,56267,14,6,0,5202.978629,0.985412619,0,0,0.0,0.0,0,0,1,1,0,0,0,14,47,1,10,1,10,0,0,1762535.9159098724,14.382264758646304,2.975497501868177,72.7224293723933,5.137995479228438
153,"125 St (A,C,B,D)",40.811109,-73.952343,0.784137123,83487,54,65465,1.997187732,0.832891976,0.840329278,11,19637,484,617.2389829,21,7.878330344,64006.97265,12.96913833,6.65925657,63.38537691,0.697830603,2.039505408,12.46116738,0.568651022,12.96913833,70498,14,7,0,4247.743276,0.804496833,0,0,0.0,0.0,0,0,0,1,0,0,0,12,60,1,10,1,10,0,0,2147087.84262584,14.57962345589573,2.8460397010474825,93.82641200436169,5.254772347111517
154,"116 St (C,B)",40.805085,-73.954882,0.784137123,84262,51,66073,1.832761556,0.764320934,0.816147153,11,46336,409,521.5924463,19,7.794648528,66613.59317,12.65934384,6.639835629,62.85131843,1.357480574,1.418469663,13.05756024,0.861178718,12.65934384,72669,14,6,0,4355.659519,0.824935515,0,0,0.0,0.0,0,0,1,1,0,0,0,11,50,1,10,1,10,0,1,2523487.007962208,14.741152632606209,2.9451415087202903,112.63887977482676,5.348489233668468
155,"Cathedral Pkwy (110 St) (C,B)",40.800603,-73.958161,0.784137123,84263,50,66074,1.432772433,0.622245162,0.683163821,10,11873,440,561.1263481,17,8.510195542,64758.81118,11.59465115,6.575204967,62.07041135,1.861323378,1.619403922,13.72077324,0.623241413,11.59465115,69630,9,5,0,5518.841527,1.045235138,0,0,0.0,0.0,0,0,0,1,0,0,0,2,33,1,2,1,10,1,1,2922325.7170234937,14.887890677849688,2.03681075970447,128.9233657815305,5.423075328197428
156,"103 St (C,B)",40.796092,-73.961454,0.784137123,67561,102,52977,1.124597907,0.488406665,0.524499502,10,11666,434,553.4746251,14,7.198784298,75286.2679,11.80778109,4.55563712,65.53031421,1.87247738,2.429193371,10.37062958,0.790820064,11.80778109,83734,10,4,0,7003.109488,1.326346494,0,0,0.0,0.0,0,0,0,0,0,0,0,2,26,1,2,1,10,1,1,3347704.946304527,15.023785877076106,-0.8605334497501492,148.05727001625016,5.504146884954745
157,"96 St (C,B)",40.791642,-73.964696,0.784137123,65211,117,51134,1.055982777,0.480598473,0.489108255,9,13450,409,521.5924463,11,7.125237648,110134.4311,12.3523819,4.150137928,64.27258029,1.866629682,2.6979865,8.381283604,3.303900379,12.3523819,104796,7,6,0,8618.37168,1.632267364,0,0,0.0,0.0,0,0,0,0,0,0,0,2,38,1,2,1,10,1,1,3835739.9708112213,15.159873186848147,-0.7163879798824289,166.28975300724534,5.575726470033221
158,"86 St (C,B)",40.785868,-73.968916,0.784137123,63671,129,49927,1.628810765,0.741303726,0.78523654,9,14998,318,405.5413152,10,6.652452751,127217.8781,17.62414875,4.312329244,58.97672561,3.21516007,2.601731185,7.885649437,3.044132199,17.62414875,120877,9,5,0,10831.35949,2.051393843,0,0,0.0,0.0,0,0,1,1,0,0,0,7,36,1,7,1,10,1,1,4594478.966655807,15.340366133625357,1.2118933535639147,192.22453082969517,5.669453277148776
159,"81 St-Museum of Natural History (C,B)",40.781433,-73.972143,0.784137123,57352,166,44972,1.705200468,0.711123829,0.794161616,11,21726,299,381.3108592,15,8.398047949,134102.585,17.08071544,6.360175498,57.24476703,3.250936361,3.972442945,9.392353031,0.660737247,17.08071544,140232,8,5,0,9615.263571,1.821072646,0,0,0.0,0.0,0,0,0,1,0,0,0,8,41,1,8,1,10,1,1,5280272.961093097,15.479488540907045,0.9519519314630169,216.55983286618,5.750065725362067
160,"72 St (C,B)",40.775594,-73.97641,0.784137123,57090,170,44766,1.10984079,0.481997731,0.489020693,10,36463,362,461.65395,12,8.816565462,144731.1635,15.78197304,6.635878595,51.35780526,3.635842162,4.089512408,15.05271532,0.916965071,15.78197304,151526,11,6,0,7448.751673,1.410748423,0,0,0.0,0.0,0,0,0,1,0,1,0,12,61,1,10,1,10,1,1,6333258.302647375,15.661325559338609,3.932152307288556,249.23201867067974,5.848988980240281
162,"50 St (C,E)",40.762456,-73.985984,0.784137123,67827,100,53186,1.587254961,0.661936732,0.734522368,11,348405,223,284.3890355,34,4.23203178,100406.7299,12.69550498,3.35061058,41.19181373,3.434609349,2.543753837,34.10408468,1.79820164,12.69550498,106958,38,17,0,3945.933483,0.747335887,0,0,0.0,0.0,0,0,1,1,0,0,0,26,142,1,10,1,10,0,1,8639191.461747201,15.97181967133655,9.366565019619705,323.07968482226227,6.041994062527007
164,"34 St-Penn Station (A,C,E)",40.752287,-73.993391,0.784137123,42086,296,33001,1.787893054,0.745609316,0.76796028,11,415568,367,468.0303858,36,3.484267961,113606.6879,11.25393279,2.598428677,46.86725964,1.558966569,2.824959375,32.92425979,1.086353875,11.25393279,112720,35,18,11,621.1482032,0.117641705,0,0,0.0,0.0,0,0,0,1,0,0,0,69,175,1,10,1,10,0,0,9091742.856485717,16.02287729115184,13.426090117739465,341.52480702457035,6.084900893786787
165,"23 St (C,E)",40.745906,-73.998041,0.784137123,69277,95,54323,1.741463449,0.726246667,0.782563358,11,209582,266,339.2263831,31,5.187792579,115770.0188,12.93414755,4.034284427,49.58844155,2.442148812,3.181571154,25.8380961,0.827802251,12.93414755,124257,21,14,11,2106.026674,0.398868688,0,0,0.0,0.0,0,0,1,1,0,0,0,26,125,1,10,1,10,0,0,8914487.659106469,16.003188450271114,10.615295108347715,338.54516765435585,6.078093164713241
618,"14 St/8 Av (A,C,E,L)",40.740335,-74.002134,0.784137123,74754,82,58617,1.98248421,0.826760131,0.83483033,11,102425,356,454.0022271,34,6.102302065,121133.6608,12.21638098,4.90159493,53.77782315,3.0703592,3.188552554,20.68628894,0.958293114,12.21638098,135485,18,10,0,4423.552784,0.837794088,0,0,0.0,0.0,0,0,0,1,1,1,0,23,95,1,10,1,10,0,0,8388578.11572789,15.942381709599257,6.676951836477745,324.1962197843027,6.044644344101219
167,"W 4 St-Wash Sq (A,C,E,B,D,F,M)",40.732338,-74.000495,0.784137123,83767,53,65685,1.909005806,0.796117256,0.831104781,11,103958,356,454.0022271,38,5.874748617,142881.2614,15.49812665,4.935967384,47.77431254,3.784232743,3.805190539,22.1993633,0.832989973,15.49812665,144186,23,16,0,6919.506496,1.310512594,0,0,0.0,0.0,0,0,1,1,0,1,0,22,100,1,10,1,10,0,0,8121813.934357118,15.910064201245698,8.678272414857217,315.17847656191833,6.023035776832527
168,"Spring St (C,E)",40.726227,-74.003739,0.784137123,49962,223,39177,1.840527681,0.799331016,0.800037301,10,134382,466,594.2838141,35,6.00316842,150521.6093,16.27542804,4.759223761,43.28648142,5.201295014,4.362553455,23.4231842,1.067820629,16.27542804,131620,18,17,0,9311.091975,1.763464389,0,0,0.0,0.0,0,0,0,1,0,0,0,23,106,1,10,1,10,0,0,7592998.504176259,15.842737262895257,5.0419887139093085,297.4689762190831,5.979190666798981
169,"Canal St (A,C,E)",40.720824,-74.005229,0.784137123,45467,275,35652,1.729551352,0.721278937,0.759273549,11,137715,436,556.0251994,33,5.218492039,163014.8119,18.77262367,4.124089642,44.55703194,5.194696773,2.043079259,22.56782623,1.646250086,18.77262367,132850,21,15,0,11314.13753,2.142829079,0,0,0.0,0.0,0,0,1,1,0,0,0,37,117,1,10,1,10,0,0,7285646.316219697,15.801416849699626,4.6662471647500094,283.33673009416384,5.94276842579534
173,"High St (A,C)",40.699337,-73.990531,0.784137123,39377,319,30877,2.064518912,0.860971259,0.847354308,11,46796,985,1256.157847,28,5.611761528,146028.6917,15.70127164,4.576133733,61.12264705,1.841452359,2.000430942,12.79697228,0.908385665,15.70127164,127545,11,11,0,7061.943846,1.337489365,0,0,0.0,0.0,0,0,0,1,0,0,0,8,54,1,8,1,10,0,0,5276167.43868877,15.478710717762498,1.9411388476795277,189.74028720658524,5.660846321876233
636,"Jay St-MetroTech (A,C,F,R)",40.692259,-73.986642,0.784137123,58245,162,45672,2.026646565,0.845177263,0.853469111,11,130353,677,863.3694037,27,5.242029419,134740.9056,12.70869555,4.685767459,65.63996917,1.269554302,2.730164406,11.54325223,0.85139831,12.70869555,130651,15,15,0,4383.924352,0.830288703,0,0,0.0,0.0,0,0,1,1,0,1,0,17,45,1,10,1,10,0,0,4489326.4434687,15.317213458625472,7.1419667592481915,155.23501581210016,5.532940748553404
175,"Hoyt-Schermerhorn Sts (A,C,G)",40.688484,-73.985001,0.784137123,56490,176,44296,1.950456144,0.81340339,0.831992815,11,133663,488,622.3401315,29,5.946960041,132971.4648,12.21391348,5.558916405,66.6672655,1.121888603,2.804382425,10.18496803,1.045550178,12.21391348,128286,15,15,0,3141.146452,0.594914101,0,0,0.0,0.0,0,0,1,1,0,1,0,10,44,1,10,1,10,0,0,4109525.3245813954,15.228818330337106,7.103497174914634,138.58064054923764,5.464814876492708
176,Lafayette Av (C),40.686113,-73.973946,0.784137123,49643,231,38927,1.924250365,0.802474731,0.825925997,11,32915,287,366.0074134,26,9.094044571,121548.3033,15.12382778,7.266232095,64.06499302,0.44486341,2.941778641,7.457156444,0.806317539,15.12382778,123616,12,13,8,1034.34093,0.195897903,0,0,0.0,0.0,0,0,0,1,0,1,0,47,70,1,10,1,10,0,0,3641057.0270909136,15.107784864160736,8.351990581230323,107.22755627691568,5.322419730195154
177,Clinton-Washington Avs (C),40.683263,-73.965838,0.784137123,51501,217,40384,1.963856918,0.818991947,0.822221112,11,11605,231,294.5913327,22,9.52909647,114138.8241,14.00885766,7.745202929,63.18442883,0.495363401,3.503519433,7.709754248,1.498381714,14.00885766,114124,8,3,0,2729.909889,0.517028388,0,0,0.0,0.0,0,0,0,1,0,0,0,6,59,1,6,1,10,0,0,3145983.324163311,14.961637379804511,0.177686870230494,80.15749712096742,5.1807098027619585
627,"Franklin Av (C,S)",40.680988,-73.9563375,0.784137123,55409,195,43448,1.841583443,0.767999947,0.783952527,11,6574,185,235.9281236,21,10.16094217,92703.21809,11.22714807,8.527170994,64.84768276,0.903704774,4.34582326,6.746612303,1.521898203,11.22714807,94926,9,3,7,2442.408012,0.462577275,0,0,0.0,0.0,0,0,0,1,0,0,0,5,16,1,5,1,10,0,0,2679994.7528032674,14.801325767710884,3.166568405035992,43.05528633567856,4.946678042060081
179,"Nostrand Av (A,C)",40.680438,-73.950426,0.784137123,59428,154,46600,1.756511572,0.732522221,0.772592629,11,7565,200,255.0574309,22,11.16127365,76977.68476,10.76869495,9.25800098,66.02283683,0.782950322,4.937499667,5.437335622,0.710683692,10.76869495,79256,9,3,7,965.36074,0.182833473,0,0,0.0,0.0,0,0,0,1,0,0,0,5,24,1,5,1,10,0,0,2456930.2229139716,14.714423658809519,3.344339297155819,24.678607280229272,4.806723011404264
180,Kingston-Throop Avs (C),40.679921,-73.940858,0.784137123,59885,151,46958,1.941202646,0.809544382,0.823751842,11,7302,274,349.4286804,25,14.11204076,75709.93909,10.70710745,12.38313577,64.13524202,1.341407426,4.683222499,4.682812462,0.330141805,10.70710745,75445,7,2,7,2117.287397,0.401001401,0,0,0.0,0.0,0,0,0,1,0,0,0,6,17,1,6,1,10,0,0,2138909.576792687,14.575807181109619,3.0139728490740216,-3.5829475416682897,4.544023568251507
181,"Utica Av (A,C)",40.679364,-73.930729,0.784137123,55740,191,43708,1.722076557,0.718161705,0.763111474,11,6774,365,465.4798115,25,17.69877364,58809.95923,9.078046812,16.27829473,66.30530875,1.168752195,1.671597735,3.091774659,0.985746213,9.078046812,62833,7,2,0,4864.772177,0.921358367,0,0,0.0,0.0,0,0,0,0,0,0,0,2,12,1,2,1,10,0,0,1836673.9345540912,14.423467394022955,-2.0301150478871888,-28.285882153659074,4.239391013176554
182,Ralph Av (C),40.678822,-73.920786,0.784137123,58122,163,45576,1.729268315,0.721160901,0.767363095,11,4276,372,474.4068215,22,18.78577643,57344.70186,6.159168877,17.31430144,68.23537798,1.199744513,1.651239709,3.098280014,0.870412473,6.159168877,56783,9,2,0,5105.593576,0.96696848,0,0,0.0,0.0,0,0,0,0,0,0,0,2,11,1,2,1,10,0,0,1579026.624556779,14.272319788054205,-1.8227706178046421,-54.24172514329414,3.7706841451157613
183,Rockaway Av (C),40.67834,-73.911946,0.784137123,53159,208,41684,1.706440416,0.711640927,0.749603216,11,6809,458,584.0815168,24,18.54075525,52530.62456,4.224312599,17.08548698,70.55769309,1.174463035,1.292260685,3.983282957,0.227232386,4.224312599,52100,8,5,0,2696.610755,0.510721734,0,0,0.0,0.0,0,0,0,0,0,0,0,0,3,0,0,1,3,0,0,1375304.2815053794,14.134186287352373,-3.2604532127309236,-72.15551915226952,3.2385199784625494
621,"Broadway Junction (A,C,J,Z,L)",40.678896,-73.904356,0.784137123,30541,383,23948,2.087523946,0.870565103,0.844906656,11,9553,569,725.638391,15,18.42379144,52110.35227,3.932422506,16.897446,70.99203675,1.465337763,1.192410917,3.284105906,0.709894716,3.932422506,57187,8,5,7,1202.786979,0.227800564,0,0,0.0,0.0,0,0,0,0,0,0,0,0,1,0,0,1,1,0,0,1234946.9324257032,14.02653936717627,-1.8842528305760795,-84.67394655471622,2.563219542065657
185,Liberty Av (C),40.674542,-73.896548,0.784137123,30282,384,23745,2.21688217,0.924511673,0.876106827,11,8646,509,649.1211617,3,24.65485562,35675.51381,2.569359571,21.43047892,66.96678766,1.370336943,0.577354249,2.823302137,0.958185205,2.569359571,41761,7,5,7,1797.225009,0.340383524,0,0,0.0,0.0,0,0,0,0,0,0,0,2,5,1,2,1,5,0,0,1023590.8643462344,13.838828435157085,-0.927379836295259,-95.05754072639947,0.9531770557901289
186,Van Siclen Av (C),40.67271,-73.890358,0.784137123,41639,300,32651,1.906255828,0.794970427,0.776104315,11,5191,265,337.951096,0,27.53282598,47656.93075,3.402710987,21.96047033,63.46998333,1.026019994,0.431975255,3.127701083,0.863112369,3.402710987,47392,4,4,0,3633.90254,0.688239118,0,0,0.0,0.0,0,0,0,0,0,0,0,3,5,1,3,1,5,0,0,900959.3803601724,13.711216562660454,-3.7158810770350597,-95.65147839305831,0.6931471805599453
187,Shepherd Av (C),40.67413,-73.88075,0.784137123,47364,255,37140,1.703647598,0.710476232,0.722023381,11,6120,329,419.5694739,0,27.88344987,49016.9456,5.728580889,23.14122503,60.44506963,1.717267728,0.266922165,3.675573124,0.157590642,5.728580889,53781,6,3,0,6149.390552,1.164657301,0,0,0.0,0.0,0,0,0,0,0,0,0,0,2,0,0,1,2,0,0,779446.5080914163,13.566340624726822,-4.3290717064009,-95.5212366209012,0.7562354813347613
188,"Euclid Av (A,C)",40.675377,-73.872106,0.784137123,53584,202,42017,1.792982036,0.747731586,0.764498017,11,5848,358,456.5528014,0,26.86861143,45634.15058,3.341708828,22.9453496,63.27580505,0.683031329,0.086149625,5.411449576,0.333244164,3.341708828,47430,7,2,0,8517.893702,1.613237444,0,0,0.0,0.0,0,0,0,0,0,0,0,0,2,0,0,1,2,0,0,681962.7900870254,13.432731841702038,-4.218140996090235,-93.86881381864757,1.3304286751616905
189,Grant Av (A),40.677044,-73.86505,0.784137123,48828,246,38288,1.567604977,0.653742053,0.668442169,11,3428,373,475.6821087,0,30.18587117,56714.5817,4.510165175,24.85091196,58.04568364,1.009182537,0.128435686,5.253505736,0.867156054,4.510165175,56439,5,2,0,10483.11367,1.985438195,0,0,0.0,0.0,0,0,0,0,0,0,0,1,1,1,1,1,1,0,0,618407.8740584222,13.334905126182178,-4.836819475718259,-91.10829979185264,1.8784230720465678
190,80 St (A),40.679371,-73.858992,0.784137123,39757,318,31175,1.48990351,0.647056873,0.658987664,10,2636,393,501.1878518,0,32.95969644,67382.43389,5.912835961,27.42681558,54.82858113,0.806863988,0.022758781,4.645063456,0.788621348,5.912835961,68979,5,1,0,12222.62365,2.314890843,0,0,0.0,0.0,0,0,0,0,0,0,0,0,1,0,0,1,1,0,0,574808.9229637382,13.261794696370876,-5.435262379403302,-87.94332422555514,2.272966168198003
191,88 St (A),40.679843,-73.85147,0.784137123,33016,364,25889,1.274282239,0.553413745,0.547553742,10,3285,376,479.5079702,0,32.88446113,68714.69181,5.797454793,27.46231126,54.21883461,0.949332135,0.006481331,5.369903752,0.708679705,5.797454793,74427,10,1,0,12267.77773,2.323442752,0,0,0.0,0.0,0,0,0,0,0,0,0,0,0,0,0,0,0,0,0,508299.08065715636,13.138827262115202,-5.634658545314909,-83.52700725014509,2.6479088351218816
192,Rockaway Blvd (A),40.680429,-73.843853,0.784137123,31463,376,24671,1.495720384,0.649583109,0.628802009,10,5836,332,423.3953354,0,36.40083486,68416.88953,5.370972512,28.95672387,49.7305567,0.486700427,0.981487911,6.066272883,0.84582685,5.370972512,75769,10,1,0,11236.4516,2.128115834,0,0,0.0,0.0,0,0,0,0,0,0,0,0,0,0,0,0,0,0,0,448816.224248196,13.014371010903824,-5.67267322086066,-78.2607293065771,2.964796101127278
193,104 St (A),40.681711,-73.837683,0.784137123,31640,374,24810,1.345960758,0.58454333,0.572615995,10,5680,280,357.0804033,0,41.04993619,83169.52321,5.685250062,34.14245281,46.12310637,0.226911836,1.343662178,4.942371569,0.516811997,5.685250062,82169,10,1,0,10351.63053,1.960536085,0,0,0.0,0.0,0,0,0,0,0,0,0,0,0,0,0,0,0,0,0,411811.49094329507,12.928323405663873,-5.666921958463949,-72.56773175493133,3.222220092092648
194,111 St (A),40.684331,-73.832163,0.784137123,41314,307,32396,1.119616448,0.486243245,0.463393156,10,4648,182,232.1022622,0,43.1502121,88385.83761,5.261114843,34.80906184,45.22014949,0.26424423,0.951858745,4.814487818,0.327176084,5.261114843,86629,9,1,0,8598.361459,1.628477549,0,0,0.0,0.0,0,0,0,0,0,0,0,0,0,0,0,0,0,0,0,389001.0582160366,12.871339913630381,-5.34193432652843,-65.62556747066915,3.466545291480978
195,Ozone Park-Lefferts Blvd (A),40.685951,-73.825798,0.784137123,45822,267,35931,0.77054551,0.334643663,0.327605084,10,4333,163,207.8718062,0,45.79355037,85073.16438,2.982422459,36.58382491,46.19594546,0.129026504,0.177643586,4.558737535,0.162674094,2.982422459,83766,7,1,0,6905.704067,1.307898497,0,0,0.0,0.0,0,0,0,0,0,0,0,0,1,0,0,1,1,0,0,356155.19943160465,12.783124676054399,-5.0306648275122,-56.934537801578664,3.7066442365974464
221,21 St-Queensbridge (M),40.754203,-73.942836,0.784137123,20403,417,15999,2.131360712,0.888846455,0.861561944,11,35373,505,644.0200131,16,12.51666202,85167.17625,8.044734241,8.627434603,69.66184232,0.382591532,1.192021785,6.275906491,1.720707143,8.044734241,99161,12,9,0,4440.945089,0.841088085,0,0,0.0,0.0,0,0,0,0,1,1,0,0,9,0,0,1,9,0,0,5060782.722708896,15.437031915180913,0.7817570904336499,171.28485260337067,5.594474663841257
222,Roosevelt Island (M),40.759145,-73.95326,0.784137123,36798,336,28855,1.877783375,0.783096491,0.802824743,11,45477,536,683.5539149,10,7.714215389,138356.163,8.509845499,5.901540955,46.38289784,3.422873018,1.282623067,30.58492401,2.089446567,8.509845499,127991,7,2,0,6317.883664,1.196568876,0,0,0.0,0.0,0,0,0,1,0,1,0,4,16,1,4,1,10,0,0,6126721.741213579,15.628170538719402,2.063334272373906,224.0882633235715,5.773742963191372
223,"Lexington Av/63 St (M,Q)",40.764629,-73.966113,0.784137123,68316,98,53569,1.720803338,0.717630731,0.778502889,11,144125,372,474.4068215,24,7.592027007,146671.3627,12.82947353,5.700372641,40.63569802,4.809586954,1.026329609,31.98378587,1.123099014,12.82947353,148823,73,10,0,4312.128676,0.816691037,0,0,0.0,0.0,0,0,0,1,1,1,0,16,46,1,10,1,10,0,1,7310601.709423876,15.804836278316735,10.536849498913696,275.07062927303855,5.920833122316809
224,57 St (M),40.763972,-73.97745,0.784137123,32043,371,25126,1.407263704,0.611166861,0.707335436,10,324857,314,400.4401666,29,3.769379018,134483.8088,14.04314782,3.083432368,35.28541141,4.957765945,1.860726994,38.25709803,1.82647078,14.04314782,133726,72,14,0,3257.005964,0.61685719,0,0,0.0,0.0,0,0,0,1,0,0,0,24,87,1,10,1,10,1,1,8344323.6400978,15.937092181916649,9.275179753346011,314.6690024719068,6.02180091314553
59,9 Av (D),40.646292,-73.994324,0.784137123,39053,323,30623,1.388755239,0.579155918,0.605867953,11,8151,118,150.4838843,5,19.57494616,56289.52652,4.690229873,13.14425118,53.36090386,0.630168375,2.591174243,18.3405523,0.665113285,4.690229873,55389,3,3,0,14542.72087,2.754303195,0,0,0.0,0.0,0,0,0,0,0,0,0,1,4,1,1,1,4,0,0,1456887.8524788336,14.191813797077934,-4.333209611019491,-34.59490815976845,4.144032263695345
60,Fort Hamilton Pkwy (D),40.640914,-73.994304,0.784137123,61867,138,48512,1.948239489,0.812478973,0.823782116,11,22557,154,196.3942218,4,22.02037974,46992.91996,6.337848044,14.42710341,42.2013443,0.493244785,1.2226036,26.48407138,0.875608849,6.337848044,47721,4,3,0,16386.98275,3.103595217,0,0,0.0,0.0,0,0,0,1,0,0,0,0,3,0,0,1,3,0,0,1293780.1306270226,14.073079598026727,-1.3720681239936092,-52.59304462580276,3.807960175573
61,50 St (D),40.63626,-73.994791,0.784137123,67013,106,52547,1.611262735,0.671948751,0.744562116,11,28370,154,196.3942218,0,21.9839982,41367.986,6.518217593,14.58630362,32.88854907,0.330458297,0.767055207,36.1612567,1.09579101,6.518217593,42217,2,1,0,18043.24263,3.417280802,0,0,0.0,0.0,0,0,0,0,0,0,0,0,1,0,0,1,1,0,0,1173181.3046813672,13.975230533020241,-4.232441548644348,-61.131432216555254,3.59786132014281
62,55 St (D),40.631435,-73.995476,0.784137123,56269,179,44123,1.896922809,0.791078255,0.806364318,11,28387,179,228.2764007,0,24.96760278,40604.83819,6.850207008,17.73549993,31.78338426,0.316006201,1.170826526,33.59168575,1.320287474,6.850207008,44442,3,4,0,19782.20018,3.746628822,0,0,0.0,0.0,0,0,0,0,0,0,0,0,2,0,0,1,2,0,0,1061084.2574742038,13.874802770139873,-3.714352000854084,-70.6697609312296,3.2951595056041807
615,"62 St/New Utrecht Av (D,N)",40.625657,-73.996624,0.784137123,50843,220,39868,1.785037348,0.744418394,0.76973849,11,31406,196,249.9562823,0,27.79064433,50947.15627,5.717837009,21.34974185,44.7820851,0.25984364,1.684211228,18.63225405,1.10862609,5.717837009,56985,3,4,0,21894.75522,4.146733944,0,0,0.0,0.0,0,0,0,0,0,0,0,1,1,1,1,1,1,0,0,931574.3687185778,13.744632376881706,-4.169839558736975,-77.49685943292413,3.0034334909145657
64,71 St (D),40.619589,-73.998864,0.784137123,50157,221,39330,1.707274748,0.741460002,0.757389403,10,18575,176,224.4505392,0,29.91144206,58764.96588,4.828819342,23.33129399,52.7946563,0.537834693,1.872714039,9.652664275,0.367146258,4.828819342,60327,3,4,0,24191.24483,4.581675157,0,0,0.0,0.0,0,0,0,0,0,0,0,0,2,0,0,1,2,0,0,813191.5514576326,13.608723201148921,-4.0715190486646975,-80.15629546216088,2.861925581946605
65,79 St (D),40.613501,-74.00061,0.784137123,51136,218,40098,1.330738601,0.577932431,0.632564121,10,7207,185,235.9281236,0,29.11999139,68323.39239,5.998728456,22.38623663,54.2647761,0.540996059,1.290708415,8.515897252,0.268902328,5.998728456,66975,3,1,0,26458.5918,5.011096933,0,0,0.0,0.0,0,0,0,0,0,0,0,1,4,1,1,1,4,0,0,703708.7187575912,13.46412121879801,-4.264602019126088,-79.30137287544291,2.909635324762815
66,18 Av (D),40.607954,-74.001736,0.784137123,53177,206,41698,1.441715688,0.601242141,0.683625866,11,8787,183,233.3775493,0,27.45923428,69186.8511,6.003267862,22.04983475,57.18991309,0.469619268,1.151768231,7.530907303,0.194199449,6.003267862,67564,6,1,0,28491.86274,5.396186124,0,0,0.0,0.0,0,0,0,0,0,0,0,2,5,1,2,1,5,0,0,606840.8409464253,13.316023477517742,-3.7006556925812752,-77.47303986627922,3.004614634666033
